facility_name,facility_name_english,facility_name_display,facility_type_standard,longitude,latitude,has_original_name,coordinates_valid,location_precision
صيدلية التفاح الاخضر,Green Apple Pharmacy,Green Apple Pharmacy,pharmacy,32.6189537,15.5984329,TRUE,TRUE,high
Africa pharmcy,Africa pharmcy,Africa pharmcy,pharmacy,32.5694639,15.5330492,TRUE,TRUE,high
أم حريزات,Umm Harizat,Umm Harizat,clinic,33.4733517,14.8036371,TRUE,TRUE,high
مستشفي اربجي الريفي,Arbaji Rural Hospital,Arbaji Rural Hospital,hospital,33.3525065,14.7264294,TRUE,TRUE,high
صيدلية ام القري,Umm Al-Qura Pharmacy,Umm Al-Qura Pharmacy,pharmacy,33.2999175,14.7387066,TRUE,TRUE,high
صيدلية الدكاترة,Doctors Pharmacy,Doctors Pharmacy,pharmacy,33.3004108,14.7387891,TRUE,TRUE,high
,,Unnamed Pharmacy,pharmacy,36.3955747,15.4557589,FALSE,TRUE,medium
عمر بن الخطاب - عيادة محولة,Omar bin Al-Khattab - referral clinic,Omar bin Al-Khattab - referral clinic,clinic,32.563093,15.539468,TRUE,TRUE,high
صيدلية الرشيد الحديثة,Al-Rasheed Modern Pharmacy,Al-Rasheed Modern Pharmacy,pharmacy,32.5356865,15.5275621,TRUE,TRUE,high
صيدلية المتخصصة,Specialized pharmacy,Specialized pharmacy,pharmacy,32.5476554,15.5308806,TRUE,TRUE,high
صيدلية المطار الحديثة,Modern Airport Pharmacy,Modern Airport Pharmacy,pharmacy,33.5395935,14.3928487,TRUE,TRUE,high
مستشفي ود مدني,Wad Madani Hospital,Wad Madani Hospital,hospital,33.5265425,14.3965021,TRUE,TRUE,high
صيدلية ياسين,Yassin Pharmacy,Yassin Pharmacy,pharmacy,32.6238649,15.6332069,TRUE,TRUE,high
صيدلية ايفان,Evan Pharmacy,Evan Pharmacy,pharmacy,32.6244305,15.6344297,TRUE,TRUE,high
صيدلية لايف كير,Life Care Pharmacy,Life Care Pharmacy,pharmacy,32.6305632,15.6297188,TRUE,TRUE,high
صيدلية سعاد 7,Souad Pharmacy 7,Souad Pharmacy 7,pharmacy,32.6329146,15.6406018,TRUE,TRUE,high
صيدليه ماما فهيمه,Mama Fahima Pharmacy,Mama Fahima Pharmacy,pharmacy,32.6356431,15.7013502,TRUE,TRUE,high
عيادة العبور لطب و جراحة الاسنان,Obour Dental Surgery Clinic,Obour Dental Surgery Clinic,clinic,32.4899857,15.6924137,TRUE,TRUE,high
صيدلية شوامخ الشهداء,Shawamikh Al-Shuhadaa Pharmacy,Shawamikh Al-Shuhadaa Pharmacy,pharmacy,32.4860052,15.6447007,TRUE,TRUE,high
صيدلية النخيل,Al Nakheel Pharmacy,Al Nakheel Pharmacy,pharmacy,32.5790634,15.7203121,TRUE,TRUE,high
مركز الدكتور جلال البيطري,Dr. Jalal Veterinary Center,Dr. Jalal Veterinary Center,clinic,32.5481873,15.6896877,TRUE,TRUE,high
Reval Pharmacy,Reval Pharmacy,Reval Pharmacy,pharmacy,32.5797256,15.55909,TRUE,TRUE,high
صيدلية سمر بلس,Summer Plus Pharmacy,Summer Plus Pharmacy,pharmacy,32.5785809,15.5624431,TRUE,TRUE,high
صيدلية الهرم,Al Haram Pharmacy,Al Haram Pharmacy,pharmacy,32.577831,15.5636307,TRUE,TRUE,high
صيدلية السواحلي,Al Swahili Pharmacy,Al Swahili Pharmacy,pharmacy,32.578515,15.565561,TRUE,TRUE,high
صيدلية مكة 7,Mecca Pharmacy 7,Mecca Pharmacy 7,pharmacy,32.5783619,15.5635911,TRUE,TRUE,high
صيدلية بله الفكي,Balla El Faki Pharmacy,Balla El Faki Pharmacy,pharmacy,32.582725,15.5384998,TRUE,TRUE,high
عيادة سعودي لطب الأسنان,Saudi dental clinic,Saudi dental clinic,dental_clinic,32.5356057,15.5696033,TRUE,TRUE,high
صيدلية رودينا,Rodina Pharmacy,Rodina Pharmacy,pharmacy,32.560688,15.5878124,TRUE,TRUE,high
صيدلية الهجان,Al-Hagan Pharmacy,Al-Hagan Pharmacy,pharmacy,32.444561,15.6126871,TRUE,TRUE,high
صيدلية محمد سعيد - شارع ليبيا,Mohamed Saeed Pharmacy - Libya Street,Mohamed Saeed Pharmacy - Libya Street,pharmacy,32.4411888,15.6138124,TRUE,TRUE,high
صيدلية محمد يس,Muhammad Yassin Pharmacy,Muhammad Yassin Pharmacy,pharmacy,32.4581871,15.6134377,TRUE,TRUE,high
صيدلية التهامي,El Tohamy Pharmacy,El Tohamy Pharmacy,pharmacy,32.4595642,15.6086874,TRUE,TRUE,high
صيدلية مريم إسحق,Maryam Ishaq Pharmacy,Maryam Ishaq Pharmacy,pharmacy,32.456562,15.5870628,TRUE,TRUE,high
صيدلية هرفة,Harfa Pharmacy,Harfa Pharmacy,pharmacy,32.4523125,15.5826874,TRUE,TRUE,high
صيدلية جبرة شمال,Jabra North Pharmacy,Jabra North Pharmacy,pharmacy,32.5256882,15.5365629,TRUE,TRUE,high
مركز ام القري جنوب الصحي,Umm Al-Qura South Health Center,Umm Al-Qura South Health Center,clinic,32.5747989,15.7515477,TRUE,TRUE,high
صيدلية سيف الله,Seif Allah Pharmacy,Seif Allah Pharmacy,pharmacy,32.586937,15.7764378,TRUE,TRUE,high
صيدلية المحمدة,Al-Mohammeda Pharmacy,Al-Mohammeda Pharmacy,pharmacy,32.6928139,15.5141878,TRUE,TRUE,high
صيدلية تساهيل,Tsahil Pharmacy,Tsahil Pharmacy,pharmacy,32.6895638,15.5171871,TRUE,TRUE,high
صيدلية بسام محمد صلاح,Bassam Mohamed Salah Pharmacy,Bassam Mohamed Salah Pharmacy,pharmacy,32.5245628,15.5273123,TRUE,TRUE,high
صيدلية المشرق,Al-Mashreq Pharmacy,Al-Mashreq Pharmacy,pharmacy,32.5793999,15.5074053,TRUE,TRUE,high
,,Unnamed Pharmacy,pharmacy,33.0925522,15.0140674,FALSE,TRUE,medium
صيدلية ود موسي,Wad Moussa Pharmacy,Wad Moussa Pharmacy,pharmacy,32.4411412,15.6834392,TRUE,TRUE,high
صيدلية د مايكل,Dr Michael Pharmacy,Dr Michael Pharmacy,pharmacy,32.4863129,15.6591873,TRUE,TRUE,high
صيدلية محمد سعيد - ش ود البشير,Mohamed Saeed Pharmacy - Wad Al Bashir Street,Mohamed Saeed Pharmacy - Wad Al Bashir Street,pharmacy,32.4465637,15.6478128,TRUE,TRUE,high
مركز بريفينسيا للبصريات,Previncia Optical Center,Previncia Optical Center,clinic,32.5069676,15.7003437,TRUE,TRUE,high
صيدلية آمن,Aamen Pharmacy,Safe Pharmacy,pharmacy,32.5489388,15.6913128,TRUE,TRUE,high
صيدلية اربيل,Erbil Pharmacy,Erbil Pharmacy,pharmacy,32.5086777,15.7059596,TRUE,TRUE,high
صيدلية سديم,Sadeem Pharmacy,Sadeem Pharmacy,pharmacy,32.4596196,15.7349285,TRUE,TRUE,high
صيدلية الموردة,Supplied Pharmacy,Supplied Pharmacy,pharmacy,32.4884043,15.6301165,TRUE,TRUE,high
Medani Health Centre,Medani Health Centre,Medani Health Centre,other,33.5000462,14.4275804,TRUE,TRUE,high
المركز السوداني للسمع,Sudanese Hearing Centre,Sudanese Hearing Centre,other,32.4844281,15.6431792,TRUE,TRUE,high
,,Unnamed Clinic,clinic,33.0974814,15.0135224,FALSE,TRUE,medium
,,Unnamed Pharmacy,pharmacy,33.0974817,15.0136824,FALSE,TRUE,medium
صيدلية المقدام,Al-Maqdam Pharmacy,Al-Maqdam Pharmacy,pharmacy,32.634124,15.608869,TRUE,TRUE,high
صيدلية امباقو 3,Ambago Pharmacy 3,Ambago Pharmacy 3,pharmacy,32.6338509,15.6019011,TRUE,TRUE,high
مجمع عيادات كحيل الطبي,Kahil Medical Complex,Kahil Medical Complex,clinic,32.6279088,15.5976743,TRUE,TRUE,high
صيدلة اوسارا,Osara Pharmacy,Osara Pharmacy,pharmacy,32.6364483,15.592603,TRUE,TRUE,high
صيدلية يسر,Yusr Pharmacy,Yusr Pharmacy,pharmacy,32.5622076,15.4923143,TRUE,TRUE,high
صيدلية اواصر,Awasr Pharmacy,Awasr Pharmacy,pharmacy,32.4993995,15.4881355,TRUE,TRUE,high
صيدلية الوسيلة - الوحدة,Al Wasila Pharmacy - Al Wahda,Al Wasila Pharmacy - Al Wahda,pharmacy,32.4884377,15.449688,TRUE,TRUE,high
صيدلية الشهيد ناجي,Martyr Naji Pharmacy,Martyr Naji Pharmacy,pharmacy,32.4916878,15.4934378,TRUE,TRUE,high
,,Unnamed Clinic,clinic,30.419702,20.7487161,FALSE,TRUE,medium
عياده الاستاذ,Professor's clinic,Professor's clinic,clinic,30.2657032,20.0447326,TRUE,TRUE,high
,,Unnamed Other,other,33.0973942,15.013706,FALSE,TRUE,medium
صيدلية د.خالد,Dr. Khaled Pharmacy,Dr. Khaled Pharmacy,pharmacy,32.45893,15.6465973,TRUE,TRUE,high
صيدلية الهاشماب,Al-Hashmap Pharmacy,Al-Hashmap Pharmacy,pharmacy,32.4876763,15.6365153,TRUE,TRUE,high
صيدلية شموخ,Shumukh Pharmacy,Shumukh Pharmacy,pharmacy,32.5608221,15.518825,TRUE,TRUE,high
صيدليه بكار,Bakkar Pharmacy,Bakkar Pharmacy,pharmacy,32.4838107,15.5053962,TRUE,TRUE,high
صيدلية بت البلد,Bit El Balad Pharmacy,Bit El Balad Pharmacy,pharmacy,32.4950322,15.532763,TRUE,TRUE,high
صيدلية البدرين,Al Badrin Pharmacy,Al Badrin Pharmacy,pharmacy,32.4985384,15.5231374,TRUE,TRUE,high
صيدلية العدناني,Al Adnani Pharmacy,Al Adnani Pharmacy,pharmacy,32.4979942,15.5190986,TRUE,TRUE,high
صيدلية طابت عبدالمحمود,Tabet Abdel Mahmoud Pharmacy,Tabet Abdel Mahmoud Pharmacy,pharmacy,32.4939353,15.5265158,TRUE,TRUE,high
صيدلية الدوثر,Al Dawthar Pharmacy,Al Dawthar Pharmacy,pharmacy,32.5637833,15.5022537,TRUE,TRUE,high
مجمع الأزهري الطبي,Al-Azhari Medical Complex,Al-Azhari Medical Complex,clinic,32.5633458,15.5047217,TRUE,TRUE,high
صيدلية الأزهر,Al-Azhar Pharmacy,Al-Azhar Pharmacy,pharmacy,32.563372,15.5046325,TRUE,TRUE,high
صيدلية دار دار,Dar Dar Pharmacy,Dar Dar Pharmacy,pharmacy,32.5634035,15.5062602,TRUE,TRUE,high
Aletihad Modern,Aletihad Modern,Aletihad Modern,pharmacy,32.5012177,15.5516791,TRUE,TRUE,high
صيدلة الشريان الحديثة,Modern artery pharmacy,Modern artery pharmacy,pharmacy,32.4992574,15.5469999,TRUE,TRUE,high
صيدلية التواضع,Humility Pharmacy,Humility Pharmacy,pharmacy,32.4944324,15.5361533,TRUE,TRUE,high
مستشفى بحري التعليمي,Bahri Teaching Hospital,Bahri Teaching Hospital,hospital,32.5284461,15.6259759,TRUE,TRUE,high
صيدليه اورينت,Orient Pharmacy,Orient Pharmacy,pharmacy,32.5285628,15.6266972,TRUE,TRUE,high
المركز التشخيصي المتطور,Advanced diagnostic center,Advanced diagnostic center,hospital,32.5272734,15.6257605,TRUE,TRUE,high
صيدلي الفتح الحديثة,Modern Fath Pharmacist,Modern Fath Pharmacist,pharmacy,32.4963807,15.540364,TRUE,TRUE,high
صيدلة اسمايل فارما الحديثة,Smile Pharma Modern Pharmacy,Smile Pharma Modern Pharmacy,pharmacy,32.4999253,15.5485396,TRUE,TRUE,high
صيدلية الدواء المركزي,Central Drug Pharmacy,Central Drug Pharmacy,pharmacy,32.4985057,15.5452453,TRUE,TRUE,high
صيدلة مركز الشجرة الصحي,Al Shajara Health Center Pharmacy,Al Shajara Health Center Pharmacy,pharmacy,32.4974667,15.5427181,TRUE,TRUE,high
صيدليه التمير 2,Al Tamir Pharmacy 2,Al Tamir Pharmacy 2,pharmacy,32.5277963,15.6246261,TRUE,TRUE,high
kutrang pharmacy,kutrang pharmacy,kutrang pharmacy,pharmacy,32.9625404,15.2746866,TRUE,TRUE,high
مركزصحي كترانج,Katrang Health Center,Katrang Health Center,clinic,32.9635887,15.2770427,TRUE,TRUE,high
Minat Allah - صيدلية منة الله,Minat Allah - Minat Allah Pharmacy,Minat Allah - Minat Allah Pharmacy,pharmacy,32.5685458,15.635896,TRUE,TRUE,high
صيدلية رابعة العدوية,Rabaa Al Adawiya Pharmacy,Rabaa Al Adawiya Pharmacy,pharmacy,32.569975,15.598512,TRUE,TRUE,high
صيدلية نوسترم,Nostrum Pharmacy,Nostrum Pharmacy,pharmacy,32.568692,15.5989679,TRUE,TRUE,high
صيدلية ذا النون,The Noon Pharmacy,The Noon Pharmacy,pharmacy,32.5662711,15.5994733,TRUE,TRUE,high
صيدلية مكة 14,Mecca Pharmacy 14,Mecca Pharmacy 14,pharmacy,32.5682953,15.5809142,TRUE,TRUE,high
Tenna health center,Tenna health center,Tenna health center,clinic,29.4505149,14.167514,TRUE,TRUE,high
صيدلية أبو صبا,Abu Saba Pharmacy,Abu Saba Pharmacy,pharmacy,32.547805,15.5409475,TRUE,TRUE,high
صيدلية النخبة,Elite Pharmacy,Elite Pharmacy,pharmacy,32.550925,15.5314188,TRUE,TRUE,high
صيدلية علياء,Alia Pharmacy,Alia Pharmacy,pharmacy,32.5563061,15.5318757,TRUE,TRUE,high
مستشفى القابلات للولادة,Midwives Hospital,Midwives Hospital,hospital,32.4897019,15.635974,TRUE,TRUE,high
Shambat pharmacy,Shambat pharmacy,Shambat pharmacy,pharmacy,32.5247722,15.6551384,TRUE,TRUE,high
مركز المزارعين الصحي,Farmers Health Center,Farmers Health Center,clinic,34.148928,13.9587969,TRUE,TRUE,high
صيدلية عزنا,Ezna Pharmacy,Ezna Pharmacy,pharmacy,32.5659751,15.4869472,TRUE,TRUE,high
صيدلية الوفاقٍ,Al-Wefaq Pharmacy,Al-Wefaq Pharmacy,pharmacy,32.5539084,15.4851427,TRUE,TRUE,high
صيدلية الصفصاف,Al Safsaf Pharmacy,Al Safsaf Pharmacy,pharmacy,32.5607225,15.4923849,TRUE,TRUE,high
مستشفى بشائر التعليمي,Bashaer Teaching Hospital,Bashaer Teaching Hospital,hospital,32.5524368,15.4893122,TRUE,TRUE,high
Dongola hospital,Dongola hospital,Dongola hospital,clinic,30.4661309,19.1782763,TRUE,TRUE,high
Military hospital,Military hospital,Military hospital,clinic,30.4675752,19.1780238,TRUE,TRUE,high
صيدلية باشكار الحديثة,Modern Bashkar Pharmacy,Modern Bashkar Pharmacy,pharmacy,32.494564,15.4817659,TRUE,TRUE,high
صيدليه الطيف,Spectrum Pharmacy,Spectrum Pharmacy,pharmacy,32.4998888,15.482555,TRUE,TRUE,high
صيدلية سند,Sanad Pharmacy,Sanad Pharmacy,pharmacy,32.5014224,15.475292,TRUE,TRUE,high
سوق شقي,Naughty market,Naughty market,clinic,28.0839702,9.914031,TRUE,TRUE,high
النعام,Ostrich,Ostrich,clinic,28.467549,9.7144516,TRUE,TRUE,high
,,Unnamed Pharmacy,pharmacy,33.5200904,14.3970698,FALSE,TRUE,medium
د. عبد القادر الكدرو باطنية,"D. Abdel Qader Al-Kadro, mystical","D. Abdel Qader Al-Kadro, mystical",clinic,32.5314075,15.6365627,TRUE,TRUE,high
Royal care Northern Gate,Royal care Northern Gate,Royal care Northern Gate,clinic,32.5712828,15.6001912,TRUE,TRUE,high
مستشفى مروي التخصصي,Marawi Specialized Hospital,Marawi Specialized Hospital,hospital,31.8387922,18.4841833,TRUE,TRUE,high
صيدلية بريفليج,Privilege Pharmacy,Privilege Pharmacy,pharmacy,32.4316864,15.5593128,TRUE,TRUE,high
صيدلية الكدادة,Al-Kadada Pharmacy,Al-Kadada Pharmacy,pharmacy,32.4596484,15.5935856,TRUE,TRUE,high
صيدلية محمد سعيد,Mohamed Saeed Pharmacy,Mohamed Saeed Pharmacy,pharmacy,32.4661178,15.6069512,TRUE,TRUE,high
صيدلية ابتسام,Ibtisam Pharmacy,Ibtisam Pharmacy,pharmacy,32.4753113,15.6185627,TRUE,TRUE,high
The Military Hospital (- Omdurman,The Military Hospital (- Omdurman,The Military Hospital - Omdurman,hospital,32.4842813,15.6168332,TRUE,TRUE,high
صيدلية ضحى,Doha Pharmacy,Doha Pharmacy,pharmacy,32.4706798,15.6075029,TRUE,TRUE,high
Al Muhandiseen Medical Compound,Al Muhandiseen Medical Compound,Al Muhandiseen Medical Compound,clinic,32.4621895,15.6087513,TRUE,TRUE,high
Al Badai'e Pharmacy,Al Badai'e Pharmacy,Al Badai'e Pharmacy,pharmacy,32.4650112,15.6080729,TRUE,TRUE,high
Al Badai'e Clinic,Al Badai'e Clinic,Al Badai'e Clinic,clinic,32.4650309,15.6081711,TRUE,TRUE,high
Sa'd Roshwan Pharmacy,Sa'd Roshwan Pharmacy,Sa'd Roshwan Pharmacy,pharmacy,32.4625928,15.6016411,TRUE,TRUE,high
Al Qi,Al Qi,Al Qi,clinic,32.4222893,15.5288804,TRUE,TRUE,high
Ard,Ard,Ard,pharmacy,32.4238155,15.5323114,TRUE,TRUE,high
Habbat Al Baraka Pharmacy,Habbat Al Baraka Pharmacy,Habbat Al Baraka Pharmacy,pharmacy,32.4139751,15.5405652,TRUE,TRUE,high
Karary University Dentistry Clinics,Karary University Dentistry Clinics,Karary University Dentistry Clinics,dental_clinic,32.4790455,15.6153791,TRUE,TRUE,high
مشرحة الجامعة,University morgue,University morgue,clinic,32.4781183,15.615994,TRUE,TRUE,high
Obs,Obs,Obs,hospital,32.4836118,15.6164921,TRUE,TRUE,high
Tameem Clinic,Tameem Clinic,Tameem Clinic,clinic,32.5058827,15.6682707,TRUE,TRUE,high
مركز السليمانية غرب الصحي المرجعي,Sulaymaniyah West Health Reference Center,Sulaymaniyah West Health Reference Center,clinic,32.473238,15.312573,TRUE,TRUE,high
,,Unnamed Pharmacy,pharmacy,32.5360152,15.6325368,FALSE,TRUE,medium
Shafag pharmacy,Shafag pharmacy,Shafag pharmacy,pharmacy,32.5353889,15.5691515,TRUE,TRUE,high
صيدلية النادي,Club Pharmacy,Club Pharmacy,pharmacy,32.5764389,15.5784378,TRUE,TRUE,high
مركز الماسه لطب الأسنان (اطفال),Al Masa Dental Center (Children),Al Masa Dental Center (Children),dental_clinic,32.5747207,15.5857524,TRUE,TRUE,high
صيدلية جبل اولياء,Jabal Awliyaa Pharmacy,Jabal Awliyaa Pharmacy,pharmacy,32.5008972,15.2417266,TRUE,TRUE,high
صيدلية ماما سمية,Mama Somaya Pharmacy,Mama Somaya Pharmacy,pharmacy,32.5579376,15.6051874,TRUE,TRUE,high
صيدلية الاول,First Pharmacy,First Pharmacy,pharmacy,32.4609375,15.6489372,TRUE,TRUE,high
صيدلية الشهيدة سلمي,Martyr Salma Pharmacy,Martyr Salma Pharmacy,pharmacy,32.5334486,15.6000743,TRUE,TRUE,high
صيدلية الحرمين,Al Haramain Pharmacy,Al Haramain Pharmacy,other,32.4847622,15.4805494,TRUE,TRUE,high
Blood Bank - Military Hospital,Blood Bank - Military Hospital,Blood Bank - Military Hospital,other,32.4843194,15.6120112,TRUE,TRUE,high
Bint Karoda Medical Lab,Bint Karoda Medical Lab,Bint Karoda Medical Lab,other,32.469671,15.3165894,TRUE,TRUE,high
Dr. Ahlam Laboratory,Dr. Ahlam Laboratory,Dr. Ahlam Laboratory,other,32.4686805,15.3266334,TRUE,TRUE,high
ماتيا للبصريات,Mattea Opticals,Mattea Opticals,other,32.5716163,15.6045733,TRUE,TRUE,high
مستشفى علياء التخصصي 2,Alia Specialized Hospital 2,Alia Specialized Hospital 2,hospital,32.4848481,15.6136204,TRUE,TRUE,high
صيدلية احباب الرحمن,Ahbab Al-Rahman Pharmacy,Ahbab Al-Rahman Pharmacy,pharmacy,32.5043916,15.6842485,TRUE,TRUE,high
مستشف المنورة التخصصي,Al Munawara Specialized Hospital,Al Munawara Specialized Hospital,clinic,32.4823089,15.4863417,TRUE,TRUE,high
صيدلية شهد,Shahd Pharmacy,Shahd Pharmacy,pharmacy,32.5246874,15.6621882,TRUE,TRUE,high
صيدلية الفجر الحديث,Al Fajr Modern Pharmacy,Al Fajr Modern Pharmacy,pharmacy,32.5355856,15.5677844,TRUE,TRUE,high
صيدلية سيفوي,Safeway Pharmacy,Safeway Pharmacy,pharmacy,32.5363675,15.5648659,TRUE,TRUE,high
الابتسامة اللامعة,The bright smile,The bright smile,dental_clinic,32.5355638,15.5681895,TRUE,TRUE,high
صيدلية الهلالي,Al Hilali Pharmacy,Al Hilali Pharmacy,pharmacy,32.536343,15.563422,TRUE,TRUE,high
صيدلية بابنتود,Babentud Pharmacy,Babentud Pharmacy,pharmacy,32.4846878,15.4924374,TRUE,TRUE,high
صيدلية نيو آن الحديثة,New Ann Modern Pharmacy,New Ann Modern Pharmacy,pharmacy,32.4875641,15.5186872,TRUE,TRUE,high
صيدلية اريام,Aryam Pharmacy,Aryam Pharmacy,pharmacy,32.5003128,15.560813,TRUE,TRUE,high
مستشفي ام سياله العام,Umm Sayala General Hospital,Umm Sayala General Hospital,hospital,31.1287951,14.3955293,TRUE,TRUE,high
صيدلية الاقحوان,Al-Aqhawan Pharmacy,Al-Aqhawan Pharmacy,pharmacy,32.5039368,15.4589376,TRUE,TRUE,high
مستشفي مستري,Mistry Hospital,Mistry Hospital,hospital,22.1850405,13.126066,TRUE,TRUE,high
صيدلية النادر ومك,Al-Nader and MK Pharmacy,Al-Nader and MK Pharmacy,pharmacy,32.527813,15.5341873,TRUE,TRUE,high
صيدلية الرملي,Ramli Pharmacy,Ramli Pharmacy,pharmacy,32.5040627,15.5235624,TRUE,TRUE,high
صيدلية ابو حسبو,Abu Hasbo Pharmacy,Abu Hasbo Pharmacy,pharmacy,32.5238113,15.5271873,TRUE,TRUE,high
صيدلية هاي كير - بجبرة,Hi Care Pharmacy - Jabrah,Hi Care Pharmacy - Jabrah,pharmacy,32.5304375,15.5280628,TRUE,TRUE,high
صيدلية د ريم,Dr Reem Pharmacy,Dr Reem Pharmacy,pharmacy,32.5828133,15.5373125,TRUE,TRUE,high
مستشفى جبيل الطينة,Jbeil Tina Hospital,Jbeil Tina Hospital,hospital,32.4629285,15.2995724,TRUE,TRUE,high
صيدلية وجن,Wajan Pharmacy,Wajan Pharmacy,pharmacy,32.578186,15.7325621,TRUE,TRUE,high
ZAL teaching Hospital,ZAL teaching Hospital,ZAL teaching Hospital,hospital,23.8346473,12.759927,TRUE,TRUE,high
Hospital for xpat,Hospital for xpat,Hospital for xpat,hospital,22.4503823,13.4442482,TRUE,TRUE,high
صيدلية كير لايف ٢,Care Life Pharmacy 2,Care Life Pharmacy 2,pharmacy,32.5733109,15.5884371,TRUE,TRUE,high
صيدلية بكري وشذى,Bakri and Shatha Pharmacy,Bakri and Shatha Pharmacy,pharmacy,32.5631866,15.5946875,TRUE,TRUE,high
عيادة الابراج لطب الاسنان,Al Abraj Dental Clinic,Al Abraj Dental Clinic,dental_clinic,32.505882,15.6979318,TRUE,TRUE,high
صيدلية الملاك,Angel Pharmacy,Angel Pharmacy,pharmacy,33.5354004,14.3886943,TRUE,TRUE,high
صيدلية عواطف,Awatif Pharmacy,Awatif Pharmacy,pharmacy,32.531311,15.6474371,TRUE,TRUE,high
صيدلية تدبير الله,Tadbeer Allah Pharmacy,Tadbeer Allah Pharmacy,pharmacy,32.562561,15.6080627,TRUE,TRUE,high
صيدلية فارنا سيتي,Varna City Pharmacy,Varna City Pharmacy,pharmacy,32.5721893,15.7026873,TRUE,TRUE,high
صيدلية د راوية,Dr Rawya Pharmacy,Dr Rawya Pharmacy,pharmacy,32.5754356,15.6646872,TRUE,TRUE,high
صيدلية الجلالين,Al-Jalalin Pharmacy,Al-Jalalin Pharmacy,pharmacy,32.5715637,15.6650629,TRUE,TRUE,high
صيدلية نوفا,Nova Pharmacy,Nova Pharmacy,pharmacy,32.5730629,15.6356878,TRUE,TRUE,high
صيدلية المانجل ٢,Al Manjil Pharmacy 2,Al Manjil Pharmacy 2,pharmacy,32.5739365,15.7613125,TRUE,TRUE,high
صيدلية التعافي,Recovery Pharmacy,Recovery Pharmacy,pharmacy,32.5749359,15.7614374,TRUE,TRUE,high
صيدلية ام القرى البيطرية,Umm Al-Qura Veterinary Pharmacy,Umm Al-Qura Veterinary Pharmacy,pharmacy,32.5881882,15.7585621,TRUE,TRUE,high
صيدلية طابة,Tabah Pharmacy,Tabah Pharmacy,pharmacy,32.578186,15.7509375,TRUE,TRUE,high
صيدلية دوائي - ام القرى,Dawai Pharmacy - Umm Al-Qura,Dawai Pharmacy - Umm Al-Qura,pharmacy,32.5790634,15.7505627,TRUE,TRUE,high
صيدلية زهرة المدائن الطبية,Zahrat Al Madaen Medical Pharmacy,Zahrat Al Madaen Medical Pharmacy,pharmacy,32.5674362,15.7550621,TRUE,TRUE,high
صيدلية مسك الجنة,Misk Al Jannah Pharmacy,Misk Al Jannah Pharmacy,pharmacy,32.6079175,15.6126737,TRUE,TRUE,high
صيدلية روشتة,Rosheta Pharmacy,Rosheta Pharmacy,pharmacy,32.6061655,15.6041203,TRUE,TRUE,high
صيدلية مشاعل,Mashael Pharmacy,Mashael Pharmacy,pharmacy,32.5789375,15.7353125,TRUE,TRUE,high
صيدلية النطاسي,Al-Natasi Pharmacy,Al-Natasi Pharmacy,pharmacy,32.567688,15.7321873,TRUE,TRUE,high
صيدلية خيول,Horses pharmacy,Horses pharmacy,pharmacy,32.5718117,15.732688,TRUE,TRUE,high
صيدلية ابو اواب الحديثة,Abu Awab Modern Pharmacy,Abu Awab Modern Pharmacy,pharmacy,33.3027464,14.7382846,TRUE,TRUE,high
صيدلية التامين الصحي,Health insurance pharmacy,Health insurance pharmacy,pharmacy,33.3035406,14.738862,TRUE,TRUE,high
صيدلية لين,Lane Pharmacy,Lane Pharmacy,pharmacy,33.3042418,14.7315018,TRUE,TRUE,high
صيدلية الصفا,Al Safa Pharmacy,Al Safa Pharmacy,pharmacy,33.3019716,14.7360227,TRUE,TRUE,high
صيدلية النور,Al Nour Pharmacy,Al Nour Pharmacy,pharmacy,33.2992412,14.7384342,TRUE,TRUE,high
صيدلية الهدي 2,Al-Huda Pharmacy 2,Al-Huda Pharmacy 2,pharmacy,33.2990965,14.7364593,TRUE,TRUE,high
صيدلية مركز صحي الحلة الجديدة,New Hilla Health Center Pharmacy,New Hilla Health Center Pharmacy,pharmacy,33.3011619,14.7469753,TRUE,TRUE,high
صيدلية دكتور نمير الحديثة,Dr. Namir Modern Pharmacy,Dr. Namir Modern Pharmacy,pharmacy,33.299734,14.7475204,TRUE,TRUE,high
,,Unnamed Pharmacy,pharmacy,32.5339615,15.5286633,FALSE,TRUE,medium
صيدلية وضاح,Waddah Pharmacy,Waddah Pharmacy,pharmacy,32.6209868,15.603976,TRUE,TRUE,high
صيدلية دكتور جعفر,Dr. Jaafar Pharmacy,Dr. Jaafar Pharmacy,pharmacy,32.6251482,15.6033235,TRUE,TRUE,high
صيدلية سنكونا 2,Sankona Pharmacy 2,Sankona Pharmacy 2,pharmacy,32.6372843,15.6013697,TRUE,TRUE,high
,,Unnamed Pharmacy,pharmacy,32.5682389,15.6068963,FALSE,TRUE,medium
صيدلية الخضراء,Green Pharmacy,Green Pharmacy,pharmacy,32.5683136,15.6068125,TRUE,TRUE,high
شركة ازال للادوية,Azal Pharmaceuticals Company,Azal Pharmaceuticals Company,pharmacy,32.5350837,15.584555,TRUE,TRUE,high
صيدلية محمد الطيب برير,Muhammad Al-Tayeb Brir Pharmacy,Muhammad Al-Tayeb Brir Pharmacy,pharmacy,32.4859203,15.7042298,TRUE,TRUE,high
صيدلية أبو نجلة الحديثة,Abu Najla Modern Pharmacy,Abu Najla Modern Pharmacy,pharmacy,32.485534,15.6831228,TRUE,TRUE,high
Atefa Pharmacy - صيدلية عاطفة,Atefa Pharmacy - Atefa Pharmacy,Atefa Pharmacy - Atefa Pharmacy,pharmacy,32.4851532,15.6990191,TRUE,TRUE,high
صيدليه هلا,Hala Pharmacy,Hala Pharmacy,pharmacy,32.4856521,15.7004651,TRUE,TRUE,high
Rama hospital,Rama hospital,Rama hospital,clinic,36.3982206,15.4506503,TRUE,TRUE,high
,,Unnamed Dental_clinic,dental_clinic,32.4768026,15.6917653,FALSE,TRUE,medium
صيدلية إينورا,Enora Pharmacy,Enora Pharmacy,pharmacy,32.5712155,15.5040073,TRUE,TRUE,high
صيدلية ابوالمقداد,Abu Al-Miqdad Pharmacy,Abu Al-Miqdad Pharmacy,pharmacy,32.535415,15.5843403,TRUE,TRUE,high
مركز نور الحياة للبصريات,Nour Al Hayat Optical Center,Nour Al Hayat Optical Center,clinic,27.686787,10.1441013,TRUE,TRUE,high
صيدلية ضحي,Doha Pharmacy,Doha Pharmacy,pharmacy,32.4707046,15.6075029,TRUE,TRUE,high
عيادة احمد ابشر,Ahmed Absher Clinic,Ahmed Absher Clinic,clinic,32.5341987,15.5781063,TRUE,TRUE,high
صدلية السواحلي,Swahili Pharmacy,Swahili Pharmacy,pharmacy,32.5739,15.5670664,TRUE,TRUE,high
صيدلية العميد,Al-Ameed Pharmacy,Al-Ameed Pharmacy,pharmacy,32.5314151,15.6464445,TRUE,TRUE,high
صيدلية وعدود,Waadoud Pharmacy,Waadoud Pharmacy,pharmacy,32.4780132,15.6187464,TRUE,TRUE,high
صيدلية الفاروق 4,Al Farouk Pharmacy 4,Al Farouk Pharmacy 4,pharmacy,32.5749359,15.6326876,TRUE,TRUE,high
صيدلية استيفيا,Stevia Pharmacy,Stevia Pharmacy,pharmacy,32.490261,15.5078674,TRUE,TRUE,high
صيدلية اسبانيول,Espanyol Pharmacy,Espanyol Pharmacy,pharmacy,32.4969927,15.5312463,TRUE,TRUE,high
UNIVERSE PHARMACY,UNIVERSE PHARMACY,UNIVERSE PHARMACY,pharmacy,32.5491773,15.5597012,TRUE,TRUE,high
مركز صحي يثرب,Yathrib Health Center,Yathrib Health Center,other,32.4982774,15.5250461,TRUE,TRUE,high
مجمع عيادات اركويت الطبي,Arquette Medical Clinics Complex,Arquette Medical Clinics Complex,clinic,32.5637016,15.559364,TRUE,TRUE,high
صيدلية الشرق,Al Sharq Pharmacy,Al Sharq Pharmacy,pharmacy,32.4959376,15.5325684,TRUE,TRUE,high
صيدلية يمني,Yemeni Pharmacy,Yemeni Pharmacy,pharmacy,32.5071352,15.700736,TRUE,TRUE,high
صيدلية مكة,Mecca Pharmacy,Mecca Pharmacy,pharmacy,32.4762602,15.7223859,TRUE,TRUE,high
صيدلية الشرقاوي,Al-Sharqawi Pharmacy,Al-Sharqawi Pharmacy,pharmacy,32.4770044,15.6715595,TRUE,TRUE,high
صيدلية أرزاق,Arzaq Pharmacy,Arzaq Pharmacy,pharmacy,32.4962975,15.7205023,TRUE,TRUE,high
صيدلية سادر,Sader Pharmacy,Sader Pharmacy,pharmacy,32.612613,15.572464,TRUE,TRUE,high
صيدلية الرشاد,Al-Rashad Pharmacy,Al-Rashad Pharmacy,pharmacy,32.6126437,15.594957,TRUE,TRUE,high
صيدلية الزيتونة,Al-Zaytouna Pharmacy,Al-Zaytouna Pharmacy,pharmacy,32.6147552,15.5989011,TRUE,TRUE,high
ديار,Home,Home,pharmacy,32.6108949,15.5994236,TRUE,TRUE,high
صيدلية صادقابي,Sadaqabi Pharmacy,Sadaqabi Pharmacy,pharmacy,32.6165042,15.6034789,TRUE,TRUE,high
صيدلية نمرة ود الشيخ,Namira Wad El Sheikh Pharmacy,Namira Wad El Sheikh Pharmacy,pharmacy,32.5295639,15.6265621,TRUE,TRUE,high
صيدلية بت البلد,Bit El Balad Pharmacy,Bit El Balad Pharmacy,pharmacy,32.4950638,15.5328121,TRUE,TRUE,high
صيدلية الفتح,Al Fath Pharmacy,Al Fath Pharmacy,pharmacy,32.4944382,15.5349379,TRUE,TRUE,high
صيدلية كوزمو,Cosmo Pharmacy,Cosmo Pharmacy,pharmacy,32.4954376,15.534687,TRUE,TRUE,high
مصنع الادوية العام gmc,General Pharmaceutical Factory GMC,General Pharmaceutical Factory GMC,pharmacy,32.4888115,15.5343122,TRUE,TRUE,high
صيدلية الحكمة,Al-Hikma Pharmacy,Al-Hikma Pharmacy,pharmacy,32.5394363,15.5293121,TRUE,TRUE,high
صيدلية ام البنين,Umm Al Banin Pharmacy,Umm Al Banin Pharmacy,pharmacy,32.5374374,15.5291872,TRUE,TRUE,high
صيدلية الميناء البري,Land Port Pharmacy,Land Port Pharmacy,pharmacy,32.5406876,15.5294371,TRUE,TRUE,high
سادر,Sadr,Sadr,pharmacy,32.6126488,15.5718908,TRUE,TRUE,high
صيدلية الجرافي,Al-Gharafi Pharmacy,Al-Gharafi Pharmacy,pharmacy,32.610466,15.5798426,TRUE,TRUE,high
صيدلية زكريا,Zakaria Pharmacy,Zakaria Pharmacy,pharmacy,32.6184308,15.6043917,TRUE,TRUE,high
صيدلية بيرفكت كير,Perfect Care Pharmacy,Perfect Care Pharmacy,pharmacy,32.6162285,15.6063114,TRUE,TRUE,high
البروف حسن ابوعائشه ارتيقة,Prof. Hassan Abu Aisha Artika,Prof. Hassan Abu Aisha Artika,clinic,32.6077881,15.6031641,TRUE,TRUE,high
صيدلية عائشة الطيب,Aisha Al-Tayeb Pharmacy,Aisha Al-Tayeb Pharmacy,pharmacy,32.6092023,15.5845845,TRUE,TRUE,high
صيدلية دايموندكير,Diamondcare Pharmacy,Diamondcare Pharmacy,pharmacy,32.5273363,15.5910619,TRUE,TRUE,high
صيدلية افكار,Afkar Pharmacy,Afkar Pharmacy,pharmacy,32.6329909,15.5910505,TRUE,TRUE,high
صيدلية الخليفة,Al Khalifa Pharmacy,Al Khalifa Pharmacy,pharmacy,32.4588821,15.591641,TRUE,TRUE,high
مركز حياة للإستشارات الاجتماعية,Hayat Center for Social Counseling,Hayat Center for Social Counseling,clinic,32.4978751,15.5192087,TRUE,TRUE,high
صيدلية رومي الكبري,Roumi Al-Kubra Pharmacy,Roumi Al-Kubra Pharmacy,pharmacy,32.4961544,15.4598818,TRUE,TRUE,high
صيدلية شوامخ المركزية رقم 10,Shawamikh Central Pharmacy No. 10,Shawamikh Central Pharmacy No. 10,pharmacy,32.4860515,15.4804064,TRUE,TRUE,high
صيدلية نينة,Nina Pharmacy,Nina Pharmacy,pharmacy,32.6247513,15.6384352,TRUE,TRUE,high
صيدلية شوامخ,Shawamikh Pharmacy,Shawamikh Pharmacy,pharmacy,32.6070523,15.6005942,TRUE,TRUE,high
صيدلية المني,Al-Minya Pharmacy,Al-Minya Pharmacy,pharmacy,33.3002728,14.7357224,TRUE,TRUE,high
صيدلية الهلالي,Al Hilali Pharmacy,Al Hilali Pharmacy,pharmacy,32.568441,15.5758006,TRUE,TRUE,high
مركز سفانة للعلاج الطبيعي و التأهيل,Savana Center for Physiotherapy and Rehabilitation,Savana Center for Physiotherapy and Rehabilitation,other,32.5705522,15.5771113,TRUE,TRUE,high
صيدلية شلقامي,Shalkami Pharmacy,Shalkami Pharmacy,pharmacy,32.5730941,15.5723287,TRUE,TRUE,high
صيدلية العريفي,Al-Arifi Pharmacy,Al-Arifi Pharmacy,pharmacy,32.5758496,15.5812752,TRUE,TRUE,high
صيدلية الأحلام,Dreams Pharmacy,Dreams Pharmacy,pharmacy,32.5562351,15.6243944,TRUE,TRUE,high
صيدلية الحكيم ٢,Al-Hakim Pharmacy 2,Al-Hakim Pharmacy 2,pharmacy,32.5583491,15.6214524,TRUE,TRUE,high
صيدليه بحري,Bahri Pharmacy,Bahri Pharmacy,pharmacy,32.5412385,15.6536434,TRUE,TRUE,high
صيدلية هبة,Heba Pharmacy,Heba Pharmacy,pharmacy,32.5434941,15.6731019,TRUE,TRUE,high
صيدلية شهد,Shahd Pharmacy,Shahd Pharmacy,pharmacy,32.5483392,15.6726446,TRUE,TRUE,high
صيدلية المالديف,Maldives Pharmacy,Maldives Pharmacy,pharmacy,32.5502283,15.6689454,TRUE,TRUE,high
مستشفي الأسنان الأكاديمي,Academic Dental Hospital,Academic Dental Hospital,dental_clinic,32.5420033,15.552782,TRUE,TRUE,high
صيدلية سمسم,Semsom Pharmacy,Semsom Pharmacy,pharmacy,32.5211991,15.5223834,TRUE,TRUE,high
صيدلية ذو النورين,Dhul Nourin Pharmacy,Dhul Nourin Pharmacy,pharmacy,32.5178779,15.5258096,TRUE,TRUE,high
صيدلية المتطورة,Advanced Pharmacy,Advanced Pharmacy,pharmacy,32.5128059,15.5249278,TRUE,TRUE,high
صيدلية هيلث اند بيوتي - جبرة,Health and Beauty Pharmacy - Jabra,Health and Beauty Pharmacy - Jabra,pharmacy,32.5070771,15.5244267,TRUE,TRUE,high
بنك النيل - كوبر,Nile Bank - Cooper,Nile Bank - Cooper,other,32.5436859,15.6238127,TRUE,TRUE,high
صيدلية الانقاذ,Rescue Pharmacy,Rescue Pharmacy,pharmacy,32.5353583,15.6232743,TRUE,TRUE,high
صيدلية ابانوب,Abanoub Pharmacy,Abanoub Pharmacy,pharmacy,32.5279618,15.6241537,TRUE,TRUE,high
صيدلية غلوريا,Gloria Pharmacy,Gloria Pharmacy,pharmacy,32.5609418,15.6084396,TRUE,TRUE,high
صيدلية الشهيدة اسراء,Martyr Israa Pharmacy,Martyr Israa Pharmacy,pharmacy,32.5622908,15.600684,TRUE,TRUE,high
صيدلية التداوي,Al Tadawi Pharmacy,Al Tadawi Pharmacy,pharmacy,32.5587627,15.6001484,TRUE,TRUE,high
cure dental,cure dental,cure dental,clinic,32.5611217,15.580056,TRUE,TRUE,high
,,Unnamed Pharmacy,pharmacy,32.5597134,15.5761453,FALSE,TRUE,medium
مختبرات توتال لاب كير,Total Lab Care Laboratories,Total Lab Care Laboratories,other,32.5633498,15.5665723,TRUE,TRUE,high
Abu-Elmegdad Pharmacy,Abu-Elmegdad Pharmacy,Abu-Elmegdad Pharmacy,pharmacy,32.5655724,15.5804287,TRUE,TRUE,high
مركز بنون الطبي,Benoun Medical Center,Benoun Medical Center,clinic,32.5367192,15.5892829,TRUE,TRUE,high
صيدلية المك نمر,Al-Mak Nimr Pharmacy,Al-Mak Nimr Pharmacy,pharmacy,32.5365725,15.5914782,TRUE,TRUE,high
عيادة دكتور بشرة للعيون,Skin Doctor Eye Clinic,Skin Doctor Eye Clinic,clinic,32.5341414,15.5766209,TRUE,TRUE,high
صيدلية المها,Al Maha Pharmacy,Al Maha Pharmacy,pharmacy,32.4880935,15.5190556,TRUE,TRUE,high
صيدلية الفتيحاب,Al-Fatihab Pharmacy,Al-Fatihab Pharmacy,pharmacy,32.4639714,15.6030159,TRUE,TRUE,high
صيدلية علياء,Alia Pharmacy,Alia Pharmacy,pharmacy,32.5631866,15.576438,TRUE,TRUE,high
صيدلية سلفر واتر,Silver Water Pharmacy,Silver Water Pharmacy,pharmacy,32.4466858,15.5921879,TRUE,TRUE,high
صيدلية سنديان,Sindian Pharmacy,Sindian Pharmacy,pharmacy,32.4553108,15.5888128,TRUE,TRUE,high
صيدلية فارما,Pharma Pharmacy,Pharma Pharmacy,pharmacy,32.4629364,15.5896873,TRUE,TRUE,high
Small-Mini community health point,Small-Mini community health point,Small-Mini community health point,clinic,32.5979546,13.5043193,TRUE,TRUE,high
صيدلية الفائق,Al-Fayeq Pharmacy,Al-Fayeq Pharmacy,pharmacy,32.5198135,15.4490623,TRUE,TRUE,high
صيدلية الاول,First Pharmacy,First Pharmacy,pharmacy,32.529686,15.6412824,TRUE,TRUE,high
صيدلية كوثرن,Cawthorne Pharmacy,Cawthorne Pharmacy,pharmacy,32.5420609,15.6534376,TRUE,TRUE,high
صيدلية الرازي,Al Razi Pharmacy,Al Razi Pharmacy,pharmacy,32.529686,15.6246872,TRUE,TRUE,high
صيدلية هديل,Hadeel Pharmacy,Hadeel Pharmacy,pharmacy,32.5751877,15.6695623,TRUE,TRUE,high
صيدلية البجراوية,Al-Bajrawiya Pharmacy,Al-Bajrawiya Pharmacy,pharmacy,32.440937,15.6481876,TRUE,TRUE,high
صيدلية حبيبة,Habiba Pharmacy,Habiba Pharmacy,pharmacy,32.4354362,15.6479378,TRUE,TRUE,high
صيدلية فاس,Fez Pharmacy,Fez Pharmacy,pharmacy,32.4403114,15.6141872,TRUE,TRUE,high
صيدلية عبيرنا,Abeerna Pharmacy,Abeerna Pharmacy,pharmacy,32.5691872,15.5770626,TRUE,TRUE,high
Ethetica Dental Center,Ethetica Dental Center,Ethetica Dental Center,dental_clinic,32.5718512,15.5795269,TRUE,TRUE,high
صيدلية ابن الملك,Ibn Al-Malik Pharmacy,Ibn Al-Malik Pharmacy,pharmacy,32.5715711,15.5810417,TRUE,TRUE,high
مدينة البراحة الطبية,Al Baraha Medical City,Al Baraha Medical City,clinic,32.5443115,15.6731873,TRUE,TRUE,high
صيدلية الكروان,Al Karawan Pharmacy,Al Karawan Pharmacy,pharmacy,32.5378113,15.6698122,TRUE,TRUE,high
صيدلية شمبات الحديثة,Shambat Modern Pharmacy,Shambat Modern Pharmacy,pharmacy,32.5366859,15.6673126,TRUE,TRUE,high
صيدلية المجد,Al Majd Pharmacy,Al Majd Pharmacy,pharmacy,32.5350609,15.6633129,TRUE,TRUE,high
صيدلية العائلات,Family Pharmacy,Family Pharmacy,pharmacy,32.5463142,15.657937,TRUE,TRUE,high
صيدلية اسكيمو,Eskimo Pharmacy,Eskimo Pharmacy,pharmacy,32.5470619,15.6611872,TRUE,TRUE,high
صيدلية اريس,Ares Pharmacy,Ares Pharmacy,pharmacy,32.5560608,15.6880627,TRUE,TRUE,high
صيدلية زوماكس,Zomax Pharmacy,Zomax Pharmacy,pharmacy,32.5389366,15.529563,TRUE,TRUE,high
صيدلية محطة 7,Station 7 Pharmacy,Station 7 Pharmacy,pharmacy,32.5395622,15.5441875,TRUE,TRUE,high
صيدلية مركز الدواء,Drug Center Pharmacy,Drug Center Pharmacy,pharmacy,32.5386887,15.5494375,TRUE,TRUE,high
صيدلية الفرقان,Al-Furqan Pharmacy,Al-Furqan Pharmacy,pharmacy,32.538311,15.5515623,TRUE,TRUE,high
صيدلية القصواء,Al Qaswa Pharmacy,Al Qaswa Pharmacy,pharmacy,32.5415519,15.5325083,TRUE,TRUE,high
صيدلية عبد المحمود,Abdel Mahmoud Pharmacy,Abdel Mahmoud Pharmacy,pharmacy,32.5321884,15.5395622,TRUE,TRUE,high
الياسري,Al-Yasiri,Al-Yasiri,pharmacy,32.5282426,15.5217095,TRUE,TRUE,high
صيدلية الياسري,Al-Yasiri Pharmacy,Al-Yasiri Pharmacy,pharmacy,32.5281868,15.5216875,TRUE,TRUE,high
صيدلية المدار,Al Madar Pharmacy,Al Madar Pharmacy,pharmacy,32.5146866,15.5238123,TRUE,TRUE,high
صيدلية الازهري,Al-Azhari Pharmacy,Al-Azhari Pharmacy,pharmacy,32.5630608,15.5226879,TRUE,TRUE,high
العوني,Aouni,Aouni,pharmacy,32.5407551,15.6216223,TRUE,TRUE,high
صيدلية التميز 2,Excellence Pharmacy 2,Excellence Pharmacy 2,pharmacy,32.5279388,15.6245623,TRUE,TRUE,high
صيدلية اورينت,Orient Pharmacy,Orient Pharmacy,pharmacy,32.5285606,15.626687,TRUE,TRUE,high
صيدلية الخليج,Gulf Pharmacy,Gulf Pharmacy,pharmacy,32.5630608,15.6045628,TRUE,TRUE,high
3D Scan Radiology Center,3D Scan Radiology Center,3D Scan Radiology Center,dental_clinic,32.5643549,15.5762925,TRUE,TRUE,high
مجمع الدكتور كمال العمده الطبي,Dr. Kamal Al-Amda Medical Complex,Dr. Kamal Al-Amda Medical Complex,clinic,32.5645836,15.5773255,TRUE,TRUE,high
Prestige Clinic,Prestige Clinic,Prestige Clinic,clinic,32.5657997,15.5765523,TRUE,TRUE,high
صيدلية التهامي,El Tohamy Pharmacy,El Tohamy Pharmacy,pharmacy,32.4529381,15.6543121,TRUE,TRUE,high
كمبال العالميه المكتب العلمي,Kambal International Scientific Office,Kambal International Scientific Office,pharmacy,32.5505206,15.5732472,TRUE,TRUE,high
مركز دافنشي للاسنان,Da Vinci Dental Center,Da Vinci Dental Center,dental_clinic,32.5497659,15.5789842,TRUE,TRUE,high
صيدلية طيبة2,Taiba Pharmacy2,Taiba Pharmacy2,pharmacy,32.5398065,15.5422656,TRUE,TRUE,high
صيدلية ون استب,One Step Pharmacy,One Step Pharmacy,pharmacy,32.5153122,15.534687,TRUE,TRUE,high
صيدلية تو ام - 2m,2M Pharmacy - 2m,2M Pharmacy - 2m,pharmacy,32.524189,15.5446873,TRUE,TRUE,high
صيدلية ود الحوري,Wad Al-Houry Pharmacy,Wad Al-Houry Pharmacy,pharmacy,32.562561,15.6020622,TRUE,TRUE,high
صيدلية الشريفة فاطمة الزهراء,Al-Sharifa Fatima Al-Zahraa Pharmacy,Al-Sharifa Fatima Al-Zahraa Pharmacy,pharmacy,32.5521889,15.6745625,TRUE,TRUE,high
صيدلية الشريف الهندي,Al-Sharif Al-Hindi Pharmacy,Al-Sharif Al-Hindi Pharmacy,pharmacy,32.5203614,15.5275079,TRUE,TRUE,high
صيدلية الشريف الهندي,Al-Sharif Al-Hindi Pharmacy,Al-Sharif Al-Hindi Pharmacy,pharmacy,32.5203133,15.5280628,TRUE,TRUE,high
صيدلية الراية - جبرة شمال,Al Raya Pharmacy - Jabra North,Al Raya Pharmacy - Jabra North,pharmacy,32.5125618,15.5296879,TRUE,TRUE,high
صيدلية اسبانيول,Espanyol Pharmacy,Espanyol Pharmacy,pharmacy,32.4970627,15.5313129,TRUE,TRUE,high
صيدلية المعتمد صالحة هجيليجة,Al-Mutamed Salha Heglija Pharmacy,Al-Mutamed Salha Heglija Pharmacy,pharmacy,32.4246187,15.5360332,TRUE,TRUE,high
مركز روان الصحي,Rawan Health Center,Rawan Health Center,clinic,32.4219959,15.5237664,TRUE,TRUE,high
صيدلية د حسن عبد الله,Dr. Hassan Abdullah Pharmacy,Dr. Hassan Abdullah Pharmacy,pharmacy,32.4265633,15.5438128,TRUE,TRUE,high
صيدلية الوالدين الحديثة,Modern parent pharmacy,Modern parent pharmacy,pharmacy,32.4668121,15.6075621,TRUE,TRUE,high
صيدلية التهامي,El Tohamy Pharmacy,El Tohamy Pharmacy,pharmacy,32.4649391,15.6045628,TRUE,TRUE,high
صيدلية فارما 2,Pharma Pharmacy 2,Pharma Pharmacy 2,pharmacy,32.4602423,15.5962619,TRUE,TRUE,high
صيدلية اويس,Owais Pharmacy,Owais Pharmacy,pharmacy,32.449688,15.595437,TRUE,TRUE,high
صيدلية فتاشة,Fatasha Pharmacy,Fatasha Pharmacy,pharmacy,32.4535688,15.5891634,TRUE,TRUE,high
صيدلية A to Z,A to Z Pharmacy,A to Z Pharmacy,pharmacy,32.5603038,15.5911531,TRUE,TRUE,high
,,Unnamed Pharmacy,pharmacy,32.5475198,15.5855554,FALSE,TRUE,medium
صيدلية أسيل,Aseel Pharmacy,Aseel Pharmacy,pharmacy,32.5059488,15.5243184,TRUE,TRUE,high
صيدلية الوسيلة 7,Al Waseela Pharmacy 7,Al Waseela Pharmacy 7,pharmacy,32.4825912,15.4972986,TRUE,TRUE,high
صيدلية الاسكان 72,Housing Pharmacy 72,Housing Pharmacy 72,pharmacy,32.4794862,15.7550417,TRUE,TRUE,high
صيدلية عبد العظيم,Abdel Azim Pharmacy,Abdel Azim Pharmacy,pharmacy,32.4792985,15.7538646,TRUE,TRUE,high
صيدلية التراجمة,Translation Pharmacy,Translation Pharmacy,pharmacy,32.4853726,15.7232884,TRUE,TRUE,high
صيدلية المجتمع,Community pharmacy,Community pharmacy,pharmacy,32.4716521,15.7254221,TRUE,TRUE,high
صيدلية زحل,Saturn Pharmacy,Saturn Pharmacy,pharmacy,32.4858129,15.7247555,TRUE,TRUE,high
صيدلية سديم,Sadeem Pharmacy,Sadeem Pharmacy,pharmacy,32.4595955,15.7399344,TRUE,TRUE,high
صيدلية مكة 9,Mecca Pharmacy 9,Mecca Pharmacy 9,pharmacy,32.4760148,15.7045465,TRUE,TRUE,high
صيدلية الدار البيضاء,Casablanca Pharmacy,Casablanca Pharmacy,pharmacy,32.4694772,15.607482,TRUE,TRUE,high
مجمع المهندسين الطبي,Medical Engineers Complex,Medical Engineers Complex,clinic,32.4623943,15.6085285,TRUE,TRUE,high
صيدلية حلال الطبية,Halal Medical Pharmacy,Halal Medical Pharmacy,pharmacy,32.4534283,15.6046355,TRUE,TRUE,high
صيدلية يولاند,Yolande Pharmacy,Yolande Pharmacy,pharmacy,32.4523927,15.602119,TRUE,TRUE,high
صيدلية المنذر,Al-Mundhir Pharmacy,Al-Mundhir Pharmacy,pharmacy,32.4560975,15.6130365,TRUE,TRUE,high
صيدلية ابو المقداد 2,Abu Al-Miqdad Pharmacy 2,Abu Al-Miqdad Pharmacy 2,pharmacy,32.5797995,15.5050684,TRUE,TRUE,high
صيدلية ابو المقداد 7,Abu Al-Miqdad Pharmacy 7,Abu Al-Miqdad Pharmacy 7,pharmacy,32.580124,15.5056923,TRUE,TRUE,high
صيدلية المختار,Al-Mukhtar Pharmacy,Al-Mukhtar Pharmacy,pharmacy,32.5888625,15.5529268,TRUE,TRUE,high
مركز صحي الجريف شرق,Al-Jarif Health Center East,Al-Jarif Health Center East,clinic,32.6089679,15.5838221,TRUE,TRUE,high
صيدلية موسكو,Moscow pharmacy,Moscow pharmacy,pharmacy,32.6082759,15.5892165,TRUE,TRUE,high
مجمع لميس الطبي,Lamis Medical Complex,Lamis Medical Complex,clinic,32.6087728,15.5871208,TRUE,TRUE,high
صيدلية البسملة,Basmala Pharmacy,Basmala Pharmacy,pharmacy,32.607783,15.5981161,TRUE,TRUE,high
صيدلية كير زون,Care Zone Pharmacy,Care Zone Pharmacy,pharmacy,32.6088616,15.5982701,TRUE,TRUE,high
صيدلية الفريق,Team Pharmacy,Team Pharmacy,pharmacy,32.6065409,15.5959509,TRUE,TRUE,high
صيدلية تبد,Tabd Pharmacy,Tabd Pharmacy,pharmacy,32.6075477,15.6018101,TRUE,TRUE,high
صيدلية الفاروق,Al Farouk Pharmacy,Al Farouk Pharmacy,pharmacy,32.6031583,15.6138212,TRUE,TRUE,high
صيدلية الفاروق,Al Farouk Pharmacy,Al Farouk Pharmacy,pharmacy,32.603344,15.613707,TRUE,TRUE,high
صيدلية اكسترا,Extra Pharmacy,Extra Pharmacy,pharmacy,32.6103007,15.5998423,TRUE,TRUE,high
صيدلية نعم,Pharmacy yes,Pharmacy yes,pharmacy,32.5712651,15.5595138,TRUE,TRUE,high
صيدلية نعم,Pharmacy yes,Pharmacy yes,pharmacy,32.5714088,15.5585137,TRUE,TRUE,high
صيدلية ابو المقداد 4,Abu Al-Miqdad Pharmacy 4,Abu Al-Miqdad Pharmacy 4,pharmacy,32.5651006,15.548313,TRUE,TRUE,high
صيدلية ممدوح الحديثة,Mamdouh Modern Pharmacy,Mamdouh Modern Pharmacy,pharmacy,32.5681877,15.5418129,TRUE,TRUE,high
,,Unnamed Pharmacy,pharmacy,32.5667178,15.5416747,FALSE,TRUE,medium
بصريات الجزيرة,Al Jazeera Optics,Al Jazeera Optics,other,32.5588688,15.5468565,TRUE,TRUE,high
صيدلية السواحلي,Al Swahili Pharmacy,Al Swahili Pharmacy,pharmacy,32.574973,15.5631428,TRUE,TRUE,high
الانور لطب الاسنان,Al Anwar Dental Clinic,Al Anwar Dental Clinic,dental_clinic,32.5689489,15.5724352,TRUE,TRUE,high
محطة عزيز كفوري,Aziz Kfoury station,Aziz Kfoury station,clinic,32.5597811,15.6209227,TRUE,TRUE,high
صيدلية رنيم,Raneem Pharmacy,Raneem Pharmacy,pharmacy,32.5608162,15.6328725,TRUE,TRUE,high
صيدلية د نجاة صالح,Dr. Najat Saleh Pharmacy,Dr. Najat Saleh Pharmacy,pharmacy,32.574688,15.6383123,TRUE,TRUE,high
صيدلية بريمير,Premier Pharmacy,Premier Pharmacy,pharmacy,32.5650742,15.6358456,TRUE,TRUE,high
صيدلية عبير,Abeer Pharmacy,Abeer Pharmacy,pharmacy,32.5631473,15.6355022,TRUE,TRUE,high
صيدلية بن رشد,Bin Rushd Pharmacy,Bin Rushd Pharmacy,pharmacy,32.5796439,15.5557049,TRUE,TRUE,high
عيادة حمور لطب الأسنان,Hammour Dental Clinic,Hammour Dental Clinic,dental_clinic,32.579858,15.557681,TRUE,TRUE,high
صيدلية العنبر,Anbar Pharmacy,Anbar Pharmacy,pharmacy,32.5811427,15.5478843,TRUE,TRUE,high
صدلية ابو المقداد,Abu Al-Miqdad Pharmacy,Abu Al-Miqdad Pharmacy,pharmacy,32.5820436,15.5426872,TRUE,TRUE,high
صيدلية الاخلاص,Al-Ikhlas Pharmacy,Al-Ikhlas Pharmacy,pharmacy,32.5784212,15.5123625,TRUE,TRUE,high
صيدلية دكتورة ريم,Dr. Reem Pharmacy,Dr. Reem Pharmacy,pharmacy,32.5830496,15.5368488,TRUE,TRUE,high
صيدلية بايونير,Pioneer Pharmacy,Pioneer Pharmacy,pharmacy,32.5702189,15.5874633,TRUE,TRUE,high
صيدلية المنشية,Al-Mansheya Pharmacy,Al-Mansheya Pharmacy,pharmacy,32.5734879,15.593163,TRUE,TRUE,high
صيدلية سهيلة,Suhaila Pharmacy,Suhaila Pharmacy,pharmacy,32.573092,15.5977435,TRUE,TRUE,high
صيدلية زيادة,Ziada Pharmacy,Ziada Pharmacy,pharmacy,32.5914194,15.7053396,TRUE,TRUE,high
صيدلية سالي,Sally's Pharmacy,Sally's Pharmacy,pharmacy,32.6246559,15.6355576,TRUE,TRUE,high
صيدلية التواصل,Communication Pharmacy,Communication Pharmacy,pharmacy,32.6250822,15.6417223,TRUE,TRUE,high
BioPharmacy,BioPharmacy,BioPharmacy,pharmacy,32.5811368,15.5897271,TRUE,TRUE,high
Wellcare pharmacy,Wellcare pharmacy,Wellcare pharmacy,pharmacy,32.5753974,15.5845528,TRUE,TRUE,high
ماجيك كلينك,Magic Clinic,Magic Clinic,dental_clinic,32.5746731,15.5856821,TRUE,TRUE,high
صيدلية علياء,Alia Pharmacy,Alia Pharmacy,pharmacy,32.5743985,15.5872775,TRUE,TRUE,high
صيدلية الصفوة,Al Safwa Pharmacy,Al Safwa Pharmacy,pharmacy,32.5760105,15.5975432,TRUE,TRUE,high
صيدلية السجاد,Carpet Pharmacy,Carpet Pharmacy,pharmacy,32.5785109,15.5976418,TRUE,TRUE,high
صيدلية ميراي,Mirai Pharmacy,Mirai Pharmacy,pharmacy,32.5803898,15.5977984,TRUE,TRUE,high
صيدلية ابو المقداد 19,Abu Al-Miqdad Pharmacy 19,Abu Al-Miqdad Pharmacy 19,pharmacy,32.5309992,15.6388602,TRUE,TRUE,high
صيدلية نبع الطب,Nabaa Al-Tib Pharmacy,Nabaa Al-Tib Pharmacy,pharmacy,32.5308013,15.6283121,TRUE,TRUE,high
المركز التشخيصي المتطور,Advanced diagnostic center,Advanced diagnostic center,clinic,32.5273132,15.6256876,TRUE,TRUE,high
Wadlelnile,Wadlelnile,Wadlelnile,pharmacy,32.5014946,15.6875995,TRUE,TRUE,high
عيادة اليرموك لطب و جراحة الاسنان,Al-Yarmouk Dental Surgery Clinic,Al-Yarmouk Dental Surgery Clinic,clinic,32.4903215,15.6924404,TRUE,TRUE,high
مركز البلال الطبي,Al-Bilal Medical Center,Al-Bilal Medical Center,clinic,32.4764499,15.69076,TRUE,TRUE,high
صيدلية الكرمة,Al Karma Pharmacy,Al Karma Pharmacy,pharmacy,32.4760512,15.6843026,TRUE,TRUE,high
صيدلية الحاجة زكية,Hajja Zakia Pharmacy,Hajja Zakia Pharmacy,pharmacy,32.4857808,15.6862061,TRUE,TRUE,high
صيدلية الراعي الصالح,Good Shepherd Pharmacy,Good Shepherd Pharmacy,pharmacy,32.4943153,15.6745608,TRUE,TRUE,high
صيدلية المؤيد,Almoayyed Pharmacy,Almoayyed Pharmacy,pharmacy,32.500221,15.645969,TRUE,TRUE,high
صيدلية اللدر,Al-Lader Pharmacy,Al-Lader Pharmacy,pharmacy,32.5048677,15.6559522,TRUE,TRUE,high
صيدلية علياء,Alia Pharmacy,Alia Pharmacy,pharmacy,32.4935782,15.6537411,TRUE,TRUE,high
صيدلية العدناني,Al Adnani Pharmacy,Al Adnani Pharmacy,pharmacy,32.4888017,15.644424,TRUE,TRUE,high
صيدلية دكتور كيرولس,Dr. Kirolos Pharmacy,Dr. Kirolos Pharmacy,pharmacy,32.4917439,15.6475115,TRUE,TRUE,high
مركز دي زون لطب الاسنان,D-Zone Dental Center,D-Zone Dental Center,dental_clinic,32.5826822,15.5415741,TRUE,TRUE,high
صيدلية مستشفى الراقي الجامعي,Al-Raqi University Hospital Pharmacy,Al-Raqi University Hospital Pharmacy,pharmacy,32.5893642,15.5254613,TRUE,TRUE,high
صيدلية مركزصلاح الطبي,Salah Medical Center Pharmacy,Salah Medical Center Pharmacy,pharmacy,32.461302,15.641296,TRUE,TRUE,high
صيدلية اليمامة,Al Yamama Pharmacy,Al Yamama Pharmacy,pharmacy,32.4598122,15.5950623,TRUE,TRUE,high
صيدلية الفياض,Al Fayyad Pharmacy,Al Fayyad Pharmacy,pharmacy,32.4579391,15.590313,TRUE,TRUE,high
الداية التومة - شقلة الفتيحاب,Al-Daya Al-Touma - Shakla Al-Fatihab,Al-Daya Al-Touma - Shakla Al-Fatihab,clinic,32.4641903,15.5840132,TRUE,TRUE,high
جنرال موتورز,GM,GM,pharmacy,32.548408,15.5824553,TRUE,TRUE,high
صيدلية انعام,Inaam Pharmacy,Inaam Pharmacy,pharmacy,32.5663109,15.5951872,TRUE,TRUE,high
صيدلية ميديسينا 2,Medicina Pharmacy 2,Medicina Pharmacy 2,pharmacy,32.5633125,15.5950623,TRUE,TRUE,high
صيدلية الاتفاق,Al Ittifaq Pharmacy,Al Ittifaq Pharmacy,pharmacy,32.5621872,15.5946875,TRUE,TRUE,high
صيدلية اسيف,Asif Pharmacy,Asif Pharmacy,pharmacy,32.5086861,15.5153122,TRUE,TRUE,high
صيدلية بشارة 2,Bishara Pharmacy 2,Bishara Pharmacy 2,pharmacy,32.4521866,15.6480627,TRUE,TRUE,high
صيدلية روسلين,Rosslyn Pharmacy,Rosslyn Pharmacy,pharmacy,32.4978142,15.4904375,TRUE,TRUE,high
صيدلية بيتنا 1,Our Home Pharmacy 1,Our Home Pharmacy 1,pharmacy,32.5036888,15.4875622,TRUE,TRUE,high
صيدلية د رونق صالح,Dr. Rawnaq Saleh Pharmacy,Dr. Rawnaq Saleh Pharmacy,pharmacy,32.496563,15.4941874,TRUE,TRUE,high
صيدلية عرفات,Arafat Pharmacy,Arafat Pharmacy,pharmacy,32.4529381,15.6555624,TRUE,TRUE,high
صيدلية امبدة الحارة الخامسة,Embda Al-Hara Al-Fifth Pharmacy,Embda Al-Hara Al-Fifth Pharmacy,pharmacy,32.453064,15.6526871,TRUE,TRUE,high
صيدلية ماجدولين,Magdalene Pharmacy,Magdalene Pharmacy,pharmacy,32.4611893,15.6080627,TRUE,TRUE,high
صيدلية البدائع,Al Badaya Pharmacy,Al Badaya Pharmacy,pharmacy,32.464546,15.6080907,TRUE,TRUE,high
مركز التهامي الطبي,Al-Tohamy Medical Center,Al-Tohamy Medical Center,clinic,32.4590244,15.6086849,TRUE,TRUE,high
عيادة احمد بدير,Ahmed Badir Clinic,Ahmed Badir Clinic,clinic,32.4542177,15.6072246,TRUE,TRUE,high
صيدلية الهجان,Al-Hagan Pharmacy,Al-Hagan Pharmacy,pharmacy,32.4446806,15.6129552,TRUE,TRUE,high
صيدلية صلاح سعد 3,Salah Saad Pharmacy 3,Salah Saad Pharmacy 3,pharmacy,32.454689,15.6125622,TRUE,TRUE,high
صيدلية المك نمر - المهندسين,Al-Mak Nimr Pharmacy - Mohandiseen,Al-Mak Nimr Pharmacy - Mohandiseen,pharmacy,32.4709358,15.6123123,TRUE,TRUE,high
صيدلية ود موسى,Wad Musa Pharmacy,Wad Musa Pharmacy,pharmacy,32.4615631,15.623313,TRUE,TRUE,high
صيدلية سناء,Sanaa Pharmacy,Sanaa Pharmacy,pharmacy,32.4536858,15.605938,TRUE,TRUE,high
صيدلية د. ولاء,Dr. Pharmacy loyalty,Dr. Pharmacy loyalty,pharmacy,32.4530653,15.6129529,TRUE,TRUE,high
صيدلية ود موسى 5,Wad Musa Pharmacy 5,Wad Musa Pharmacy 5,pharmacy,32.4500618,15.6479378,TRUE,TRUE,high
صيدلية الطائف,Taif Pharmacy,Taif Pharmacy,pharmacy,32.5640049,15.5618619,TRUE,TRUE,high
Al-Ezaby,Al-Ezaby,Al-Ezaby,pharmacy,32.5727417,15.5551816,TRUE,TRUE,high
صيدلية منهل الفردوس,Manhal Al-Firdous Pharmacy,Manhal Al-Firdous Pharmacy,pharmacy,32.5755699,15.5557235,TRUE,TRUE,high
د.اسنان,Dentist,Dentist,dental_clinic,32.5745718,15.5425462,TRUE,TRUE,high
صيدليو اوليف,Olive Pharmacies,Olive Pharmacies,pharmacy,32.5598667,15.5470069,TRUE,TRUE,high
صيدلية الشهيدة د.سلمى الجديدة كافورى خلف سوبرماركت إحسان كافورى مجمع النور,"Martyr Dr. Salma New Kafoury Pharmacy, behind Ihsan Kafouri Supermarket, Al Nour Complex","Martyr Dr. Salma New Kafoury Pharmacy, behind Ihsan Kafouri Supermarket, Al Nour Complex",pharmacy,32.5662814,15.6263375,TRUE,TRUE,high
صيدلية عشميق خليفة,Ashmiq Khalifa Pharmacy,Ashmiq Khalifa Pharmacy,pharmacy,32.5787607,15.5569991,TRUE,TRUE,high
صيدلية المبرة,Al-Mabarrah Pharmacy,Al-Mabarrah Pharmacy,pharmacy,32.580045,15.5544439,TRUE,TRUE,high
صيدلية فارس,Fares Pharmacy,Fares Pharmacy,pharmacy,32.5784378,15.5435629,TRUE,TRUE,high
صيدلية أوزون,Ozone Pharmacy,Ozone Pharmacy,pharmacy,32.5770024,15.5568639,TRUE,TRUE,high
صيدلية برهان,Burhan Pharmacy,Burhan Pharmacy,pharmacy,32.5788116,15.5615625,TRUE,TRUE,high
صيدلية ام المؤمنين,Umm Al-Muminin Pharmacy,Umm Al-Muminin Pharmacy,pharmacy,32.5794373,15.7275629,TRUE,TRUE,high
صيدلية اوز,Oz Pharmacy,Oz Pharmacy,pharmacy,32.574688,15.6454372,TRUE,TRUE,high
صيدلية عابدين,Abdeen Pharmacy,Abdeen Pharmacy,pharmacy,32.4814377,15.6338129,TRUE,TRUE,high
صيدلية الصحة والجمال,Health and beauty pharmacy,Health and beauty pharmacy,pharmacy,32.447937,15.6558123,TRUE,TRUE,high
صيدلية مقرات,Maqarat Pharmacy,Maqarat Pharmacy,pharmacy,32.5678221,15.5957062,TRUE,TRUE,high
صيدلية احبك ربي,"Pharmacy I love you, Lord","Pharmacy I love you, Lord",pharmacy,32.5678139,15.5956879,TRUE,TRUE,high
دكتور بيتس,Dr. Bates,Dr. Bates,clinic,32.5696869,15.6065626,TRUE,TRUE,high
صيدلية وجه القمر,Moon Face Pharmacy,Moon Face Pharmacy,pharmacy,32.5715637,15.6021872,TRUE,TRUE,high
صيدلية زمزم,Zamzam Pharmacy,Zamzam Pharmacy,pharmacy,32.578186,15.7028122,TRUE,TRUE,high
صيدلية الطاهرة,Al-Tahira Pharmacy,Al-Tahira Pharmacy,pharmacy,32.5788116,15.7409372,TRUE,TRUE,high
الدرة,Durra,Durra,pharmacy,32.5747858,15.6523284,TRUE,TRUE,high
صيدلية الراشدين,Al-Rashideen Pharmacy,Al-Rashideen Pharmacy,pharmacy,32.5748138,15.6480627,TRUE,TRUE,high
د. مصطفي يعقوب للعيون,D. Mustafa Yaqoub Eye Care,D. Mustafa Yaqoub Eye Care,clinic,32.5747121,15.5858079,TRUE,TRUE,high
مركز المازن لطب و زراعة الأسنان,Al-Mazen Center for Dental Medicine and Implantology,Al-Mazen Center for Dental Medicine and Implantology,dental_clinic,32.5758343,15.5814323,TRUE,TRUE,high
Salamat Center Care,Salamat Center Care,Salamat Center Care,clinic,32.4479623,15.6386513,TRUE,TRUE,high
ربي,My Lord,My Lord,pharmacy,32.5264645,15.6367708,TRUE,TRUE,high
الوالده,The mother,The mother,pharmacy,32.5270959,15.6387327,TRUE,TRUE,high
صيدلية ركاز 2,Rakaz Pharmacy 2,Rakaz Pharmacy 2,pharmacy,32.5314369,15.6358128,TRUE,TRUE,high
مركز علا البيطري,Ola Veterinary Center,Ola Veterinary Center,clinic,32.534687,15.6330624,TRUE,TRUE,high
صيدلية الناظر,Al-Nazer Pharmacy,Al-Nazer Pharmacy,pharmacy,32.4853134,15.6544371,TRUE,TRUE,high
صيدلية الانتصار,Al-Intisar Pharmacy,Al-Intisar Pharmacy,pharmacy,32.49747,15.646296,TRUE,TRUE,high
عيادة د. يوسف تبن,Dr. Clinic Youssef Taban,Dr. Clinic Youssef Taban,clinic,32.4857788,15.644995,TRUE,TRUE,high
مجمع عيادات التوم,Al Tom Clinics Complex,Al Tom Clinics Complex,clinic,32.4912103,15.6473345,TRUE,TRUE,high
صيدلية مكين,Makeen Pharmacy,Makeen Pharmacy,pharmacy,32.5896873,15.5390625,TRUE,TRUE,high
صيدلية سفن ام 1,7M1 Pharmacy,7M1 Pharmacy,pharmacy,32.4609375,15.6575623,TRUE,TRUE,high
صيدلية هاواي,Hawaii Pharmacy,Hawaii Pharmacy,pharmacy,32.4613113,15.6678123,TRUE,TRUE,high
صيدلية السيدة خديجة,Mrs. Khadija Pharmacy,Mrs. Khadija Pharmacy,pharmacy,32.435936,15.6518126,TRUE,TRUE,high
صيدلية بركات محمد سعيد,Barakat Mohamed Saeed Pharmacy,Barakat Mohamed Saeed Pharmacy,pharmacy,32.4480629,15.6620626,TRUE,TRUE,high
صيدلية عيش الريف,Aish Al-Reef Pharmacy,Aish Al-Reef Pharmacy,pharmacy,32.4489365,15.5933123,TRUE,TRUE,high
صيدلية الصهريج1,Tank Pharmacy1,Tank Pharmacy1,pharmacy,32.4378128,15.6478128,TRUE,TRUE,high
صيدلية حوس,Hoss Pharmacy,Hoss Pharmacy,pharmacy,32.4461861,15.6268129,TRUE,TRUE,high
صيدلية الجموعي,Al-Jumoui Pharmacy,Al-Jumoui Pharmacy,pharmacy,32.4360619,15.6030626,TRUE,TRUE,high
صيدلية العوافي,Al-Awafi Pharmacy,Al-Awafi Pharmacy,pharmacy,32.4905756,15.637083,TRUE,TRUE,high
صيدلية مرمر,Marmar Pharmacy,Marmar Pharmacy,pharmacy,32.5210752,15.6358599,TRUE,TRUE,high
صيدلية الكس 2,Alex Pharmacy 2,Alex Pharmacy 2,pharmacy,32.5180882,15.6959728,TRUE,TRUE,high
صيدلية الزينين,Al-Zainin Pharmacy,Al-Zainin Pharmacy,pharmacy,32.5215336,15.7176343,TRUE,TRUE,high
صيدلية ود القاضي,Wad El Qadi Pharmacy,Wad El Qadi Pharmacy,pharmacy,32.5224509,15.7169165,TRUE,TRUE,high
صيدلية كداده 2,Kadada Pharmacy 2,Kadada Pharmacy 2,pharmacy,32.5147476,15.7191215,TRUE,TRUE,high
صيدلية المنارة,Al Manara Pharmacy,Al Manara Pharmacy,pharmacy,32.5156756,15.7191886,TRUE,TRUE,high
مستشفى الشعب التعليمي,People's Teaching Hospital,People's Teaching Hospital,clinic,32.5349751,15.5974529,TRUE,TRUE,high
مستشفى فضيل التخصصي,Fadil Specialized Hospital,Fadil Specialized Hospital,clinic,32.5326146,15.5990642,TRUE,TRUE,high
مختبرات البرج,Al Borg Laboratories,Al Borg Laboratories,clinic,32.5342428,15.6004818,TRUE,TRUE,high
معامل المختبر,Laboratory laboratories,Laboratory laboratories,clinic,32.5339581,15.5998735,TRUE,TRUE,high
صيدلية الخرطوم شرق,Khartoum East Pharmacy,Khartoum East Pharmacy,pharmacy,32.5329024,15.5999789,TRUE,TRUE,high
عشميق,Ashmeq,Ashmeq,clinic,32.5348977,15.6028692,TRUE,TRUE,high
,,Unnamed Pharmacy,pharmacy,32.5294581,15.6035933,FALSE,TRUE,medium
مركز طب الاسنان الحديث,Modern dental center,Modern dental center,dental_clinic,32.530521,15.6039227,TRUE,TRUE,high
مركز النور لطب الاسنان الحديث,Al Nour Center for Modern Dentistry,Al Nour Center for Modern Dentistry,dental_clinic,32.5290002,15.6006953,TRUE,TRUE,high
Yellow Fever Vaccination Clinic,Yellow Fever Vaccination Clinic,Yellow Fever Vaccination Clinic,clinic,32.5269854,15.6002477,TRUE,TRUE,high
صيدلية دكتورة رانيا,Dr. Rania Pharmacy,Dr. Rania Pharmacy,pharmacy,32.5299959,15.5986474,TRUE,TRUE,high
مختبر الريان التخصصي,Al Rayyan Specialized Laboratory,Al Rayyan Specialized Laboratory,other,32.5294015,15.5994399,TRUE,TRUE,high
صيدلية الصيادلة,Pharmacists Pharmacy,Pharmacists Pharmacy,pharmacy,32.5177173,15.5990244,TRUE,TRUE,high
صيدلية السماح,Al Samah Pharmacy,Al Samah Pharmacy,pharmacy,32.5203795,15.5980952,TRUE,TRUE,high
مركز صحي جادان,Jadan Health Center,Jadan Health Center,clinic,32.5429625,15.5696122,TRUE,TRUE,high
صيدلية جادان,Jadan Pharmacy,Jadan Pharmacy,pharmacy,32.5429733,15.5695295,TRUE,TRUE,high
صيدلية الوالدة,Al-Walda Pharmacy,Al-Walda Pharmacy,pharmacy,32.524501,15.641412,TRUE,TRUE,high
صيدلية ايملي فارما,Emily Pharma Pharmacy,Emily Pharma Pharmacy,pharmacy,32.4772444,15.6761663,TRUE,TRUE,high
صيدلية شارع النص,Al-Nas Street Pharmacy,Al-Nas Street Pharmacy,pharmacy,32.4860155,15.6751865,TRUE,TRUE,high
صيدلية مركز صحي ود نوباوي,Wad Health Center Pharmacy Nubawi,Wad Health Center Pharmacy Nubawi,pharmacy,32.4894602,15.6624587,TRUE,TRUE,high
مركز صحي ود نوباوي,Wad Nubawi Health Center,Wad Nubawi Health Center,clinic,32.4895345,15.6626892,TRUE,TRUE,high
صيدلية هنا امدرمان,"Hana Pharmacy, Omdurman","Hana Pharmacy, Omdurman",pharmacy,32.4886965,15.6541309,TRUE,TRUE,high
صيدلية ندي العالمية,Nada International Pharmacy,Nada International Pharmacy,pharmacy,32.4864992,15.6424599,TRUE,TRUE,high
صيدلية علياء,Alia Pharmacy,Alia Pharmacy,pharmacy,32.4895,15.645632,TRUE,TRUE,high
صيدلية ارندا,Aranda Pharmacy,Aranda Pharmacy,pharmacy,32.5050706,15.675484,TRUE,TRUE,high
صيدلية الشهيد محمد عمار,Martyr Muhammad Ammar Pharmacy,Martyr Muhammad Ammar Pharmacy,pharmacy,32.524255,15.6066141,TRUE,TRUE,high
صيدلية كمبال,Kambal Pharmacy,Kambal Pharmacy,pharmacy,32.5245673,15.6047101,TRUE,TRUE,high
صيدلية شفق,Shafak Pharmacy,Shafak Pharmacy,pharmacy,32.5483532,15.5374927,TRUE,TRUE,high
صيدلية علياء,Alia Pharmacy,Alia Pharmacy,pharmacy,32.5565831,15.5469072,TRUE,TRUE,high
صيدلية طيبة,Taiba Pharmacy,Taiba Pharmacy,pharmacy,32.549603,15.530856,TRUE,TRUE,high
صيدلية صحة وعافية,Health and wellness pharmacy,Health and wellness pharmacy,pharmacy,32.5047358,15.6978435,TRUE,TRUE,high
صيدلية ود الحاج,Wad Al Haj Pharmacy,Wad Al Haj Pharmacy,pharmacy,32.5062442,15.6968677,TRUE,TRUE,high
صيدلية مكة 10,Mecca Pharmacy 10,Mecca Pharmacy 10,pharmacy,32.4854294,15.7177447,TRUE,TRUE,high
صيدلية العجايبي,Al-Ajaybi Pharmacy,Al-Ajaybi Pharmacy,pharmacy,32.4761212,15.7112484,TRUE,TRUE,high
مستوصف الجزيرة الطبي,Al Jazeera Medical Clinic,Al Jazeera Medical Clinic,clinic,32.4762497,15.698853,TRUE,TRUE,high
عيادة الثورة الحارة 29,Hot Revolution Clinic 29,Hot Revolution Clinic 29,clinic,32.4616533,15.6993604,TRUE,TRUE,high
مركز الحاجة نفيسة الصحي,Hajja Nafisa Health Center,Hajja Nafisa Health Center,clinic,32.4622793,15.6984765,TRUE,TRUE,high
عيادات قنجاري الطبية,Qanjari Medical Clinics,Qanjari Medical Clinics,clinic,32.4633297,15.7067859,TRUE,TRUE,high
مركز ابراهيم شمس الدين الطبي,Ibrahim Shams El Din Medical Center,Ibrahim Shams El Din Medical Center,clinic,32.4616347,15.7050934,TRUE,TRUE,high
صيدلية تفاؤل البيطرية,Tafaul Veterinary Pharmacy,Tafaul Veterinary Pharmacy,pharmacy,32.4604243,15.7071104,TRUE,TRUE,high
اولاد الميز للدواجن,Al Mayz Sons Poultry,Al Mayz Sons Poultry,pharmacy,32.4761945,15.7033407,TRUE,TRUE,high
صيدلية فارمازون,Pharmazone Pharmacy,Pharmazone Pharmacy,pharmacy,32.5011899,15.7187569,TRUE,TRUE,high
مجمع الصديق ح41,"Al-Siddiq Complex, H41","Al-Siddiq Complex, H41",other,32.4858546,15.7367846,TRUE,TRUE,high
صيدلية نماء,Namaa Pharmacy,Namaa Pharmacy,pharmacy,32.4772225,15.7499665,TRUE,TRUE,high
صيدلية الزهراء,Al Zahraa Pharmacy,Al Zahraa Pharmacy,pharmacy,32.4765178,15.7480508,TRUE,TRUE,high
مركز الشفاء الطبي,Al-Shifa Medical Center,Al-Shifa Medical Center,clinic,32.4857163,15.723721,TRUE,TRUE,high
صيدلية جدو,Gedo Pharmacy,Gedo Pharmacy,pharmacy,32.4761999,15.7185172,TRUE,TRUE,high
صيدلية الوسام الذهبي 3,Al Wissam Al Thahabi Pharmacy 3,Al Wissam Al Thahabi Pharmacy 3,pharmacy,32.4764432,15.7159242,TRUE,TRUE,high
مركز بشير صايل الطبي,Bashir Sayel Medical Center,Bashir Sayel Medical Center,clinic,32.482702,15.7624686,TRUE,TRUE,high
صيدلية رتانيا 3,Ratania Pharmacy 3,Ratania Pharmacy 3,pharmacy,32.4597376,15.738702,TRUE,TRUE,high
صيدلية روجين,Rogaine Pharmacy,Rogaine Pharmacy,pharmacy,32.4926068,15.7220618,TRUE,TRUE,high
صيدلية العثمان,Al Othman Pharmacy,Al Othman Pharmacy,pharmacy,32.5501392,15.4859456,TRUE,TRUE,high
صيدلية ابو المقداد 10,Abu Al-Miqdad Pharmacy 10,Abu Al-Miqdad Pharmacy 10,pharmacy,32.5654024,15.4931317,TRUE,TRUE,high
صيدلية الوسيلة 3,Al Waseela Pharmacy 3,Al Waseela Pharmacy 3,pharmacy,32.5048225,15.4532887,TRUE,TRUE,high
صيدلية yo,yo pharmacy,yo pharmacy,pharmacy,32.501819,15.4718651,TRUE,TRUE,high
صيدلية الوسيلة 5,Al Waseela Pharmacy 5,Al Waseela Pharmacy 5,pharmacy,32.4819154,15.4688458,TRUE,TRUE,high
صيدلية الوسيلة 2,Al Waseela Pharmacy 2,Al Waseela Pharmacy 2,pharmacy,32.4843302,15.4693734,TRUE,TRUE,high
صيدلية الوسيلة 1,Al Waseela Pharmacy 1,Al Waseela Pharmacy 1,pharmacy,32.4849996,15.4661036,TRUE,TRUE,high
صيدلية ان كير,InCare Pharmacy,InCare Pharmacy,pharmacy,32.4867716,15.4575617,TRUE,TRUE,high
صيدلية الوسيلة 8,Al Waseela Pharmacy 8,Al Waseela Pharmacy 8,pharmacy,32.4886142,15.4487498,TRUE,TRUE,high
صيدلية ابو المقداد 9,Abu Al-Miqdad Pharmacy 9,Abu Al-Miqdad Pharmacy 9,pharmacy,32.4898665,15.4431859,TRUE,TRUE,high
مركز النور الطبي,Al Nour Medical Center,Al Nour Medical Center,clinic,32.4872364,15.7113506,TRUE,TRUE,high
عيادة المدينة لطب الاسنان,City Dental Clinic,City Dental Clinic,dental_clinic,32.5061331,15.6984541,TRUE,TRUE,high
صيدلية النوبي,Al Noubi Pharmacy,Al Noubi Pharmacy,pharmacy,32.4856199,15.6929303,TRUE,TRUE,high
,,Unnamed Pharmacy,pharmacy,32.5401537,15.6325511,FALSE,TRUE,medium
صيدلية ريل,Real Pharmacy,Real Pharmacy,pharmacy,32.5351997,15.6412143,TRUE,TRUE,high
صيدلية المغتربين,Expatriates Pharmacy,Expatriates Pharmacy,pharmacy,32.5366304,15.6412175,TRUE,TRUE,high
صيدلية الكلاكلة القبة,Al-Kalakla Pharmacy Al-Qubba,Al-Kalakla Pharmacy Al-Qubba,pharmacy,32.4674505,15.4734671,TRUE,TRUE,high
صيدلية اسراء,Esraa Pharmacy,Esraa Pharmacy,pharmacy,32.4669945,15.4738135,TRUE,TRUE,high
صيدلية الوسيلة 4,Al Waseela Pharmacy 4,Al Waseela Pharmacy 4,pharmacy,32.4664101,15.4739069,TRUE,TRUE,high
مركز صحي الخوجلاب,Al-Khojlab Health Center,Al-Khojlab Health Center,clinic,32.5628427,15.806813,TRUE,TRUE,high
كاريزما 2 لطب الاسنان,Charisma 2 Dentistry,Charisma 2 Dentistry,clinic,32.4527036,15.7066049,TRUE,TRUE,high
صيدلية ابراهيم شمس,Ibrahim Shams Pharmacy,Ibrahim Shams Pharmacy,pharmacy,32.4617332,15.7076991,TRUE,TRUE,high
مركز اولاد جابر الطبي,Sons Jaber Medical Center,Sons Jaber Medical Center,clinic,32.4495184,15.711969,TRUE,TRUE,high
مركز العناية الصحي الخيري,Charitable health care center,Charitable health care center,clinic,32.4539697,15.6832662,TRUE,TRUE,high
مستوصف الفجر الخيري,Al Fajr Charitable Clinic,Al Fajr Charitable Clinic,clinic,32.4472921,15.7613009,TRUE,TRUE,high
مركز الشابي 3,Chebbi Center 3,Chebbi Center 3,clinic,32.4466078,15.7674707,TRUE,TRUE,high
صيدلية الهلالي,Al Hilali Pharmacy,Al Hilali Pharmacy,pharmacy,32.5314553,15.6414958,TRUE,TRUE,high
صيدلية ريل,Real Pharmacy,Real Pharmacy,pharmacy,32.5313778,15.6430291,TRUE,TRUE,high
المركز الهندي لطب الاسنان,Indian Dental Centre,Indian Dental Centre,clinic,32.5311087,15.6482498,TRUE,TRUE,high
صيدلية الشعبية,Popular Pharmacy,Popular Pharmacy,pharmacy,32.5310072,15.6434483,TRUE,TRUE,high
صيدلية الاول,First Pharmacy,First Pharmacy,pharmacy,32.52985,15.641278,TRUE,TRUE,high
صيدلية العوافي,Al-Awafi Pharmacy,Al-Awafi Pharmacy,pharmacy,32.4905624,15.6370621,TRUE,TRUE,high
صيدلية النو,Al Nou Pharmacy,Al Nou Pharmacy,pharmacy,32.479187,15.626687,TRUE,TRUE,high
صيدلية قرطاجنة,Cartagena Pharmacy,Cartagena Pharmacy,pharmacy,32.4614372,15.6380625,TRUE,TRUE,high
صيدلية الاخلاء,Evacuation pharmacy,Evacuation pharmacy,pharmacy,32.4611893,15.6288128,TRUE,TRUE,high
صيدلية ماستر كي,Master K Pharmacy,Master K Pharmacy,pharmacy,32.4708138,15.6223125,TRUE,TRUE,high
صيدلية صلاح سعد,Salah Saad Pharmacy,Salah Saad Pharmacy,pharmacy,32.4615631,15.6300621,TRUE,TRUE,high
صيدلية العودة الحديثة,Al Awda Modern Pharmacy,Al Awda Modern Pharmacy,pharmacy,32.4613113,15.6203127,TRUE,TRUE,high
صيدلية زروق,Zarrouk Pharmacy,Zarrouk Pharmacy,pharmacy,32.5231857,15.6326876,TRUE,TRUE,high
صيدلية نيازك,Nayazik Pharmacy,Nayazik Pharmacy,pharmacy,32.522686,15.6446877,TRUE,TRUE,high
مختبر مرج التخصصي الخرطوم,"Marj Specialized Laboratory, Khartoum","Marj Specialized Laboratory, Khartoum",clinic,32.5338423,15.5994036,TRUE,TRUE,high
Dr Elfadil's,Dr Elfadil's,Dr Elfadil's,dental_clinic,32.5285658,15.6000895,TRUE,TRUE,high
مركز الفاضل لطب الأسنان,Al-Fadil Dental Center,Al-Fadil Dental Center,clinic,32.5285792,15.6000523,TRUE,TRUE,high
إدارة المعامل الخرطوم,Khartoum Laboratories Management,Khartoum Laboratories Management,clinic,32.5275966,15.600184,TRUE,TRUE,high
صيدلية الفارابي,Al Farabi Pharmacy,Al Farabi Pharmacy,pharmacy,32.5331904,15.5990347,TRUE,TRUE,high
صيدلية نسيبه,Nuseibah Pharmacy,Nuseibah Pharmacy,pharmacy,32.5213994,15.5980417,TRUE,TRUE,high
Dr. Gamar Dental Centre,Dr. Gamar Dental Centre,Dr. Gamar Dental Centre,dental_clinic,32.5421651,15.5799731,TRUE,TRUE,high
شركة كمبال العالمية,Kambal International Company,Kambal International Company,pharmacy,32.5456428,15.584445,TRUE,TRUE,high
البطل الروماني,Roman hero,Roman hero,pharmacy,32.4867615,15.662191,TRUE,TRUE,high
صيدلية العشرة,Al Ashra Pharmacy,Al Ashra Pharmacy,pharmacy,32.5304375,15.5499372,TRUE,TRUE,high
صيدلية الاستشاري,Al-Istishari Pharmacy,Al-Istishari Pharmacy,pharmacy,32.529686,15.5500622,TRUE,TRUE,high
صيدلية د عمرو مهدي,Dr. Amr Mahdy Pharmacy,Dr. Amr Mahdy Pharmacy,pharmacy,32.4290619,15.5536871,TRUE,TRUE,high
المركز الإفريقي الهولندي للعلاج الطبيعي,Dutch African Center for Physiotherapy,Dutch African Center for Physiotherapy,clinic,32.5546228,15.5487783,TRUE,TRUE,high
صيدلية مكة ٦,Mecca Pharmacy 6,Mecca Pharmacy 6,pharmacy,32.5583573,15.5469023,TRUE,TRUE,high
صيدلية الجزيرة 3,Al Jazeera Pharmacy 3,Al Jazeera Pharmacy 3,pharmacy,32.4618111,15.6988125,TRUE,TRUE,high
صيدلية الدوثر,Al Dawthar Pharmacy,Al Dawthar Pharmacy,pharmacy,32.5643271,15.5023878,TRUE,TRUE,high
صيدلية الأفضل,Best Pharmacy,Best Pharmacy,pharmacy,32.5636066,15.5032343,TRUE,TRUE,high
صيدلية الشلال,Al Shallal Pharmacy,Al Shallal Pharmacy,pharmacy,32.501812,15.4719372,TRUE,TRUE,high
صيدلية ود الباهي,Wad El Bahi Pharmacy,Wad El Bahi Pharmacy,pharmacy,32.507061,15.4605627,TRUE,TRUE,high
صيدلية الوسيلة 8,Al Waseela Pharmacy 8,Al Waseela Pharmacy 8,pharmacy,32.4885635,15.4486876,TRUE,TRUE,high
صيدلية لمياء معتصم,Lamia Moatasem Pharmacy,Lamia Moatasem Pharmacy,pharmacy,32.4890633,15.4446878,TRUE,TRUE,high
صيدلية الدومة,Douma Pharmacy,Douma Pharmacy,pharmacy,32.4891891,15.6590624,TRUE,TRUE,high
صيدلية ام النور,Umm Al Nour Pharmacy,Umm Al Nour Pharmacy,pharmacy,32.4890633,15.6601877,TRUE,TRUE,high
صيدلية ريتانيا,Retania Pharmacy,Retania Pharmacy,pharmacy,32.5569382,15.7049379,TRUE,TRUE,high
صيدلية جماع,Intercourse pharmacy,Intercourse pharmacy,pharmacy,32.5504379,15.6938124,TRUE,TRUE,high
ربل,rubble,rubble,pharmacy,32.5338963,15.6412367,TRUE,TRUE,high
صيدلية الزعيم,Al Zaeem Pharmacy,Al Zaeem Pharmacy,pharmacy,32.539426,15.641524,TRUE,TRUE,high
صيدلية الوسيلة 4,Al Waseela Pharmacy 4,Al Waseela Pharmacy 4,pharmacy,32.4663124,15.4738121,TRUE,TRUE,high
صيدلية الفتيح العقليين,Al-Futaih Al-Aklin Pharmacy,Al-Futaih Al-Aklin Pharmacy,pharmacy,32.4813118,15.4221878,TRUE,TRUE,high
صيدلية سبدو,Sabdo Pharmacy,Sabdo Pharmacy,pharmacy,32.4411888,15.6789379,TRUE,TRUE,high
صيدلية بندول,Pendulum Pharmacy,Pendulum Pharmacy,pharmacy,32.4386864,15.6791878,TRUE,TRUE,high
صيدلية مبين الحديثة,Mobin Modern Pharmacy,Mobin Modern Pharmacy,pharmacy,32.437561,15.678812,TRUE,TRUE,high
صيدلية محمد سعيد 2 - المهندسين,Mohamed Saeed Pharmacy 2 - Mohandiseen,Mohamed Saeed Pharmacy 2 - Mohandiseen,pharmacy,32.4710617,15.6136875,TRUE,TRUE,high
صيدلية العقاقير الطبية,Medical drug pharmacy,Medical drug pharmacy,pharmacy,32.3788109,15.6558123,TRUE,TRUE,high
الهلالي,Al-Hilali,Al-Hilali,pharmacy,32.5320039,15.6405849,TRUE,TRUE,high
اللورد,Lord,Lord,pharmacy,32.5328772,15.6412542,TRUE,TRUE,high
صيدلية الشعبية,Popular Pharmacy,Popular Pharmacy,pharmacy,32.5326881,15.6415625,TRUE,TRUE,high
صيدلية الاول - بحري,Al-Awal Pharmacy - Bahri,Al-Awal Pharmacy - Bahri,pharmacy,32.5296417,15.6412859,TRUE,TRUE,high
مستوصف العناية,Care dispensary,Care dispensary,clinic,26.1269467,11.4495777,TRUE,TRUE,high
Birak,Birak,Birak,hospital,22.4276493,14.2295289,TRUE,TRUE,high
سلمى لطب العيون,Salma Ophthalmology,Salma Ophthalmology,clinic,26.1297044,11.4632403,TRUE,TRUE,high
,,Unnamed Pharmacy,pharmacy,26.1285951,11.4629704,FALSE,TRUE,medium
مجمع الوصفة الطبي,Prescription Medical Complex,Prescription Medical Complex,clinic,26.1267769,11.4627705,TRUE,TRUE,high
صيدلية ياسين,Yassin Pharmacy,Yassin Pharmacy,pharmacy,26.1300517,11.4620079,TRUE,TRUE,high
ـ,-,-,pharmacy,26.1368997,11.4426796,TRUE,TRUE,high
Centre de Santé de Moudeina,Centre de Santé de Moudeina,Centre de Santé de Moudeina,clinic,22.3317495,12.5678162,TRUE,TRUE,high
مستشفى الرهد,Al Rahad Hospital,Al Rahad Hospital,clinic,30.6451434,12.7318985,TRUE,TRUE,high
صيدلية الرياض الحديثة,Modern Riyadh Pharmacy,Modern Riyadh Pharmacy,pharmacy,32.5598913,15.5941787,TRUE,TRUE,high
صيدلية فارما سيرف,PharmaServ Pharmacy,PharmaServ Pharmacy,pharmacy,32.5756006,15.5835805,TRUE,TRUE,high
صيدلية الجريف,Al-Jarif Pharmacy,Al-Jarif Pharmacy,pharmacy,32.5826874,15.5653124,TRUE,TRUE,high
مركز تميم لطب الأسنان,Tamim Dental Center,Tamim Dental Center,dental_clinic,32.5724407,15.5762581,TRUE,TRUE,high
صيدلية ذات الصواري,Dhat Al-Sawary Pharmacy,Dhat Al-Sawary Pharmacy,pharmacy,32.6066603,15.5975166,TRUE,TRUE,high
صيدلية شوامخ المركزية 4 خرطوم2,Shawamikh Central Pharmacy 4 Khartoum2,Shawamikh Central Pharmacy 4 Khartoum2,pharmacy,32.5287052,15.5834131,TRUE,TRUE,high
CVS PHARMACY,CVS PHARMACY,CVS PHARMACY,pharmacy,32.536525,15.5913029,TRUE,TRUE,high
صيدلية الشهيد د. أحمد حسن,Martyr Dr. Pharmacy Ahmed Hassan,Martyr Dr. Pharmacy Ahmed Hassan,pharmacy,32.5236265,15.5818302,TRUE,TRUE,high
Al Mutakamil Clinic,Al Mutakamil Clinic,Al Mutakamil Clinic,clinic,32.553976,15.7002623,TRUE,TRUE,high
صيدلية شفائي,Shifai Pharmacy,Shifai Pharmacy,pharmacy,32.5575573,15.705636,TRUE,TRUE,high
صيدلية د . سيف الاسلام 2,Dr. Pharmacy Saif Al-Islam 2,Dr. Pharmacy Saif Al-Islam 2,pharmacy,32.5052782,15.6965033,TRUE,TRUE,high
صيدلية مدد,Madad Pharmacy,Madad Pharmacy,pharmacy,32.5313512,15.6425617,TRUE,TRUE,high
صيدلية لين,Lane Pharmacy,Lane Pharmacy,pharmacy,32.5047317,15.6821571,TRUE,TRUE,high
صيدلية اسد الله,Asad Allah Pharmacy,Asad Allah Pharmacy,pharmacy,32.5422744,15.6800044,TRUE,TRUE,high
صيدلية سيد عبد الله,Sayed Abdullah Pharmacy,Sayed Abdullah Pharmacy,pharmacy,32.5670624,15.6603127,TRUE,TRUE,high
صيدلية وصفة شفاء,Shifa prescription pharmacy,Shifa prescription pharmacy,pharmacy,32.532843,15.6558922,TRUE,TRUE,high
صيدلية غلوريا,Gloria Pharmacy,Gloria Pharmacy,pharmacy,32.560936,15.6083126,TRUE,TRUE,high
صيدلية الامدادات الطبية بحري,Bahri Medical Supplies Pharmacy,Bahri Medical Supplies Pharmacy,pharmacy,32.529485,15.6248315,TRUE,TRUE,high
صيدلية سدرة,Sidra Pharmacy,Sidra Pharmacy,pharmacy,32.5511856,15.6723127,TRUE,TRUE,high
صيدلية الوالدة,Al-Walda Pharmacy,Al-Walda Pharmacy,pharmacy,32.5245628,15.6414375,TRUE,TRUE,high
صيدلية السيسي - كافوري,Sisi Pharmacy - Kafouri,Sisi Pharmacy - Kafouri,pharmacy,32.5598077,15.6232636,TRUE,TRUE,high
صيدلية الهيثم,Al Haitham Pharmacy,Al Haitham Pharmacy,pharmacy,32.6094882,15.6118596,TRUE,TRUE,high
صيدلية البصيرة,Al Basira Pharmacy,Al Basira Pharmacy,pharmacy,32.5976989,15.6144252,TRUE,TRUE,high
صيدلية نوفا,Nova Pharmacy,Nova Pharmacy,pharmacy,32.5727843,15.6356104,TRUE,TRUE,high
محرم لطب الاسنان,Muharram Dental Clinic,Muharram Dental Clinic,clinic,32.5723365,15.5972839,TRUE,TRUE,high
مركز الصحي الفرعي,Sub-health center,Sub-health center,clinic,32.6018451,13.5077615,TRUE,TRUE,high
صيدلية ابوبيان,Abu Bayan Pharmacy,Abu Bayan Pharmacy,pharmacy,32.5682126,15.5034227,TRUE,TRUE,high
صيدلية هيلث اند بيوتي,Health and Beauty Pharmacy,Health and Beauty Pharmacy,pharmacy,32.5740144,15.5534417,TRUE,TRUE,high
صيدلية ابن خلدون,Ibn Khaldoun Pharmacy,Ibn Khaldoun Pharmacy,pharmacy,32.5719034,15.5511837,TRUE,TRUE,high
صيدلية سنادة,Sinada Pharmacy,Sinada Pharmacy,pharmacy,32.5901038,15.5221964,TRUE,TRUE,high
صيدلية سمسم,Semsom Pharmacy,Semsom Pharmacy,pharmacy,32.5204391,15.5224371,TRUE,TRUE,high
صيدلية ود صالح نقد,Wad Saleh Pharmacy cash,Wad Saleh Pharmacy cash,pharmacy,32.5166893,15.5263128,TRUE,TRUE,high
صيدلية المجذوب البيطرية,Al Majzoub Veterinary Pharmacy,Al Majzoub Veterinary Pharmacy,pharmacy,32.5569071,15.5366721,TRUE,TRUE,high
مركز صحي سنجراب,Sinjrab Health Center,Sinjrab Health Center,clinic,32.6153654,15.6090329,TRUE,TRUE,high
صيدلية أبو المقداد,Abu Al-Miqdad Pharmacy,Abu Al-Miqdad Pharmacy,pharmacy,32.6232785,15.6095178,TRUE,TRUE,high
صيدلية الكردي,Al-Kurdi Pharmacy,Al-Kurdi Pharmacy,pharmacy,32.6217678,15.6190235,TRUE,TRUE,high
صيدلية حراء الحديثه,Hiraa Modern Pharmacy,Hiraa Modern Pharmacy,pharmacy,32.6301527,15.6254856,TRUE,TRUE,high
صيدلية الفلاح,Al Falah Pharmacy,Al Falah Pharmacy,pharmacy,32.6185177,15.6106813,TRUE,TRUE,high
صيدلية المهاجرون,Al-Muhajiroun Pharmacy,Al-Muhajiroun Pharmacy,pharmacy,32.5433121,15.4531879,TRUE,TRUE,high
صيدلية الباهي,Al Bahi Pharmacy,Al Bahi Pharmacy,pharmacy,32.507061,15.4605627,TRUE,TRUE,high
Africa Hospital,Africa Hospital,Africa Hospital,dental_clinic,32.5688689,15.532967,TRUE,TRUE,high
معمل مبارك للفحوصات الطبية,Mubarak Medical Testing Laboratory,Mubarak Medical Testing Laboratory,other,33.0902113,15.0162195,TRUE,TRUE,high
,,Unnamed Pharmacy,pharmacy,26.131453,11.4617787,FALSE,TRUE,medium
,,Unnamed Clinic,clinic,26.1301479,11.4626846,FALSE,TRUE,medium
صيدلية المك نمر,Al-Mak Nimr Pharmacy,Al-Mak Nimr Pharmacy,pharmacy,32.5233092,15.5849886,TRUE,TRUE,high
,,Unnamed Clinic,clinic,26.1439435,11.4655822,FALSE,TRUE,medium
المركز الصحي,Health center,Health center,clinic,26.1360309,11.4515617,TRUE,TRUE,high
صيدلية الحياة الخضراء,Green Life Pharmacy,Green Life Pharmacy,pharmacy,32.5863113,15.5564375,TRUE,TRUE,high
صيدلية هبة الله,Hebat Allah Pharmacy,Hebat Allah Pharmacy,pharmacy,32.5901871,15.553812,TRUE,TRUE,high
صيدلية سوبر درق,Super Darq Pharmacy,Super Darq Pharmacy,pharmacy,32.5764389,15.5883121,TRUE,TRUE,high
صيدلية ريفال,Reval Pharmacy,Reval Pharmacy,pharmacy,32.5798111,15.5591879,TRUE,TRUE,high
صيدلية فريندز,Friends Pharmacy,Friends Pharmacy,pharmacy,32.5806885,15.5536871,TRUE,TRUE,high
صيدلية تالين,Tallinn Pharmacy,Tallinn Pharmacy,pharmacy,32.5808144,15.5510626,TRUE,TRUE,high
صيدلية محمد بابكر,Muhammad Babiker Pharmacy,Muhammad Babiker Pharmacy,pharmacy,32.5803108,15.5523129,TRUE,TRUE,high
,,Unnamed Clinic,clinic,27.453068,9.9747232,FALSE,TRUE,medium
الرحلة 2,Trip 2,Trip 2,clinic,27.4531547,9.9746275,TRUE,TRUE,high
الرحلة,The journey,The journey,clinic,27.4538267,9.9799008,TRUE,TRUE,high
ام مرارة,Or bitterness?,Or bitterness?,clinic,27.5532002,10.0509872,TRUE,TRUE,high
صيدلية سوق 4 بري,Souq 4 Bari Pharmacy,Souq 4 Bari Pharmacy,pharmacy,32.5623131,15.6038122,TRUE,TRUE,high
صيدلية ساجد,Sajid Pharmacy,Sajid Pharmacy,pharmacy,32.5635643,15.6065626,TRUE,TRUE,high
عيادة أسنان,Dental clinic,Dental clinic,dental_clinic,32.5351839,15.5731571,TRUE,TRUE,high
,,Unnamed Pharmacy,pharmacy,32.5362994,15.5654581,FALSE,TRUE,medium
,,Unnamed Pharmacy,pharmacy,32.5421015,15.5778498,FALSE,TRUE,medium
,,Unnamed Clinic,clinic,24.3270189,12.3662619,FALSE,TRUE,medium
صيدلية سماهن الحديثة,Samahan Modern Pharmacy,Samahan Modern Pharmacy,pharmacy,32.578207,15.5146927,TRUE,TRUE,high
مركز الوثيقة الاكتروني,Electronic document center,Electronic document center,clinic,27.6868383,10.144014,TRUE,TRUE,high
أمنه كيور,Amna Cure,Amna Cure,pharmacy,32.4959655,15.4652053,TRUE,TRUE,high
مستشفى الميرم التعليمي,Al-Meiram Teaching Hospital,Al-Meiram Teaching Hospital,clinic,27.6900207,10.1446758,TRUE,TRUE,high
صيدلية المفتي,Al-Mufti Pharmacy,Al-Mufti Pharmacy,pharmacy,32.6120567,15.578619,TRUE,TRUE,high
صيدلية ود البشير,Wad Al Bashir Pharmacy,Wad Al Bashir Pharmacy,pharmacy,32.4608451,15.646339,TRUE,TRUE,high
صيدلية ربيع العافية,Rabea Al Afia Pharmacy,Rabea Al Afia Pharmacy,pharmacy,32.6212614,15.6162204,TRUE,TRUE,high
صيدلية ابو اروي,Abu Arwa Pharmacy,Abu Arwa Pharmacy,pharmacy,32.6118524,15.6276391,TRUE,TRUE,high
صيدلية الامدادات الطبية الشهداء,Al-Shuhadaa Medical Supplies Pharmacy,Al-Shuhadaa Medical Supplies Pharmacy,pharmacy,32.488665,15.6438148,TRUE,TRUE,high
صيدليه دكتور رحمي,Dr. Rahmi Pharmacy,Dr. Rahmi Pharmacy,pharmacy,32.4950081,15.6422526,TRUE,TRUE,high
,,Unnamed Pharmacy,pharmacy,32.539242,15.5463988,FALSE,TRUE,medium
صيدلية ايمان,Eman Pharmacy,Eman Pharmacy,pharmacy,32.4855614,15.6563129,TRUE,TRUE,high
صيدلية المحبة,Al Mahabah Pharmacy,Al Mahabah Pharmacy,pharmacy,32.484314,15.651063,TRUE,TRUE,high
صيدلية ابو حربة,Abu Harba Pharmacy,Abu Harba Pharmacy,pharmacy,32.4891891,15.6514378,TRUE,TRUE,high
صيدلية الوكيل,Al-Wakil Pharmacy,Al-Wakil Pharmacy,pharmacy,32.4925613,15.6426878,TRUE,TRUE,high
منزل العمدة دفع الله محمدعلي,The house of Mayor Dafallah Muhammad Ali,The house of Mayor Dafallah Muhammad Ali,clinic,27.6805856,10.1476654,TRUE,TRUE,high
القيادة,Driving,Driving,clinic,27.6890219,10.1400728,TRUE,TRUE,high
صيدلية مرواكو,Marwako Pharmacy,Marwako Pharmacy,pharmacy,32.4786873,15.6188126,TRUE,TRUE,high
صيدلية ماك,MAC Pharmacy,MAC Pharmacy,pharmacy,32.4711876,15.618063,TRUE,TRUE,high
صيدلية السودان,Sudan Pharmacy,Sudan Pharmacy,pharmacy,32.4858131,15.6403122,TRUE,TRUE,high
صيدلية العباسية,Abbasiya Pharmacy,Abbasiya Pharmacy,pharmacy,32.4818115,15.6368122,TRUE,TRUE,high
صيدلية ام وائل,Umm Wael Pharmacy,Umm Wael Pharmacy,pharmacy,32.4814377,15.635438,TRUE,TRUE,high
صيدلية الشهيد نعمان,Shahid Noman Pharmacy,Shahid Noman Pharmacy,pharmacy,32.4805641,15.6321878,TRUE,TRUE,high
صيدلية الأربعين,Al-Arbaeen Pharmacy,Al-Arbaeen Pharmacy,pharmacy,32.4793129,15.6249371,TRUE,TRUE,high
صيدلية بانت,Pant Pharmacy,Pant Pharmacy,pharmacy,32.4795609,15.6216879,TRUE,TRUE,high
صيدلية الصليحابي,Al-Sulaihabi Pharmacy,Al-Sulaihabi Pharmacy,pharmacy,32.4795609,15.6214371,TRUE,TRUE,high
صيدلية بصري,Basri Pharmacy,Basri Pharmacy,pharmacy,32.4633141,15.6451874,TRUE,TRUE,high
صيدلية المركزية 2,Central Pharmacy 2,Central Pharmacy 2,pharmacy,32.4799385,15.6413126,TRUE,TRUE,high
صيدلية غونيش,Gunes Pharmacy,Gunes Pharmacy,pharmacy,32.5794373,15.6019373,TRUE,TRUE,high
صيدلية سالي 3,Sally Pharmacy 3,Sally Pharmacy 3,pharmacy,32.6211872,15.6179613,TRUE,TRUE,high
صيدلية بحري الجديدة,New Bahri Pharmacy,New Bahri Pharmacy,pharmacy,32.5411873,15.6535625,TRUE,TRUE,high
صيدلية النجمي,Al-Najmi Pharmacy,Al-Najmi Pharmacy,pharmacy,32.6262688,15.5975085,TRUE,TRUE,high
صيدلية الحاج طه الحديثة,Haj Taha Modern Pharmacy,Haj Taha Modern Pharmacy,pharmacy,32.6096921,15.6309214,TRUE,TRUE,high
صيدلية دوانة,Dawana Pharmacy,Dawana Pharmacy,pharmacy,32.620585,15.6122514,TRUE,TRUE,high
,,Unnamed Pharmacy,pharmacy,32.5305741,15.5855697,FALSE,TRUE,medium
صيدلية الامدادات الطبية,Medical supplies pharmacy,Medical supplies pharmacy,pharmacy,32.5236893,15.5814371,TRUE,TRUE,high
صيدلية هيئة مياه ولاية الخرطوم,Khartoum State Water Authority Pharmacy,Khartoum State Water Authority Pharmacy,pharmacy,32.5150362,15.6035711,TRUE,TRUE,high
,,Unnamed Pharmacy,pharmacy,36.3980933,15.4570463,FALSE,TRUE,medium
مستشفى كسلا التعليمي,Kassala Teaching Hospital,Kassala Teaching Hospital,hospital,36.3947567,15.4549575,TRUE,TRUE,high
صيدلية أسيف,Asif Pharmacy,Asif Pharmacy,pharmacy,32.5087885,15.5152766,TRUE,TRUE,high
صيدلي,pharmaceutical,pharmaceutical,pharmacy,32.5087972,15.5152815,TRUE,TRUE,high
الزرافة البيردة,The wild giraffe,The wild giraffe,clinic,27.8761485,10.2866032,TRUE,TRUE,high
منزل ال عيسى النور,The house of Issa Al-Nour,The house of Issa Al-Nour,clinic,27.8786615,10.2873538,TRUE,TRUE,high
صيدلية المودة ٢,Al Mawaddah Pharmacy 2,Al Mawaddah Pharmacy 2,pharmacy,32.5669365,15.5766878,TRUE,TRUE,high
صيدلية حنتمة,Hantama Pharmacy,Hantama Pharmacy,pharmacy,32.5190469,15.5989623,TRUE,TRUE,high
صيدلية شفاء العليل,Shifa Al-Alil Pharmacy,Shifa Al-Alil Pharmacy,pharmacy,32.4196892,15.6635628,TRUE,TRUE,high
معمل الترا لاب السودان,Ultra Lab Sudan,Ultra Lab Sudan,clinic,32.5350267,15.5997069,TRUE,TRUE,high
صيدلية محمد القاسم,Muhammad Al Qasim Pharmacy,Muhammad Al Qasim Pharmacy,pharmacy,32.5048095,15.6819944,TRUE,TRUE,high
صيدلية اليكس,Alex Pharmacy,Alex Pharmacy,pharmacy,32.5060313,15.6801003,TRUE,TRUE,high
صيدلية اليكس 1,Alex Pharmacy 1,Alex Pharmacy 1,pharmacy,32.5058933,15.6794521,TRUE,TRUE,high
صيدلية المواساة,Mouwasat Pharmacy,Mouwasat Pharmacy,pharmacy,32.5056555,15.6766146,TRUE,TRUE,high
صيدلية أبو المقداد - السجانة,Abu Al-Miqdad Pharmacy - Al-Sajana,Abu Al-Miqdad Pharmacy - Al-Sajana,pharmacy,32.5263138,15.5699377,TRUE,TRUE,high
صيدلية زيادة,Ziada Pharmacy,Ziada Pharmacy,pharmacy,32.5914464,15.7054291,TRUE,TRUE,high
صيدلية شفاء العليل,Shifa Al-Alil Pharmacy,Shifa Al-Alil Pharmacy,pharmacy,32.4524384,15.6783123,TRUE,TRUE,high
صيدلية الشكري,Al-Shukri Pharmacy,Al-Shukri Pharmacy,pharmacy,32.4576874,15.6830626,TRUE,TRUE,high
صيدلية اخر محطة - امبدة,Akher Mahatta Pharmacy - Imbada,Akher Mahatta Pharmacy - Imbada,pharmacy,32.4379387,15.6754379,TRUE,TRUE,high
المركز الصحي,Health center,Health center,clinic,26.1360324,11.4515413,TRUE,TRUE,high
صيدلية سدن,Sadan Pharmacy,Sadan Pharmacy,pharmacy,32.5703125,15.5960627,TRUE,TRUE,high
صيدلية الدكتور أنس الحسين,Dr. Anas Al Hussein Pharmacy,Dr. Anas Al Hussein Pharmacy,pharmacy,32.5007607,15.550452,TRUE,TRUE,high
صيدلية كاراس,Karas Pharmacy,Karas Pharmacy,pharmacy,32.4401894,15.6635628,TRUE,TRUE,high
صيدلية حسن صبري,Hassan Sabry Pharmacy,Hassan Sabry Pharmacy,pharmacy,32.4498138,15.661437,TRUE,TRUE,high
صيدلية الجميعاب,Al-Kilab Pharmacy,Al-Kilab Pharmacy,pharmacy,32.4570618,15.6593122,TRUE,TRUE,high
صيدلية النمسي,Al-Namsi Pharmacy,Al-Namsi Pharmacy,pharmacy,32.4559364,15.6606874,TRUE,TRUE,high
مركز صحي الزيتونة الخيري,Al-Zaytouna Charitable Health Center,Al-Zaytouna Charitable Health Center,clinic,30.6457628,12.7132816,TRUE,TRUE,high
صيدلية بن عمر,Bin Omar Pharmacy,Bin Omar Pharmacy,pharmacy,32.4676857,15.7039375,TRUE,TRUE,high
صيدلية روم لاند,Roomland Pharmacy,Roomland Pharmacy,pharmacy,32.461689,15.7021875,TRUE,TRUE,high
صيدلية ايريكس,Erics Pharmacy,Erics Pharmacy,pharmacy,32.4620628,15.7041874,TRUE,TRUE,high
صيدلية كنداكة,Kandaka Pharmacy,Kandaka Pharmacy,pharmacy,32.4563141,15.7069378,TRUE,TRUE,high
صيدلية صديق سالم,Siddiq Salem Pharmacy,Siddiq Salem Pharmacy,pharmacy,32.4519386,15.7068129,TRUE,TRUE,high
صيدلية مجمع مكة التخصصي,Mecca Specialized Complex Pharmacy,Mecca Specialized Complex Pharmacy,pharmacy,32.461937,15.6893129,TRUE,TRUE,high
صيدلية ود البشير,Wad Al Bashir Pharmacy,Wad Al Bashir Pharmacy,pharmacy,32.4606857,15.6496878,TRUE,TRUE,high
صيدلية القرن21,21st Century Pharmacy,21st Century Pharmacy,pharmacy,32.4364357,15.6480627,TRUE,TRUE,high
صيدلية ماجستك,Majestic Pharmacy,Majestic Pharmacy,pharmacy,32.4335632,15.647562,TRUE,TRUE,high
صيدلية ابو الانجاز,Abu Al-Enjaz Pharmacy,Abu Al-Enjaz Pharmacy,pharmacy,32.4584389,15.6249371,TRUE,TRUE,high
صيدلية البحيري,Al-Beheiri Pharmacy,Al-Beheiri Pharmacy,pharmacy,32.4500618,15.6246872,TRUE,TRUE,high
صيدلية قيلي - امبدة,Qili Pharmacy - Imbada,Qili Pharmacy - Imbada,pharmacy,32.4439392,15.6248121,TRUE,TRUE,high
صيدلية قيلي امبدة,Qili Ambda Pharmacy,Qili Ambda Pharmacy,pharmacy,32.4439392,15.6248121,TRUE,TRUE,high
صيدلية بر الوالدين,Bar al-Walidin Pharmacy,Bar al-Walidin Pharmacy,pharmacy,32.4366875,15.6245623,TRUE,TRUE,high
صيدلية تشفيني,Tashfini Pharmacy,Tashfini Pharmacy,pharmacy,32.4355621,15.6219378,TRUE,TRUE,high
صيدلية الزاوية,Al Zawya Pharmacy,Al Zawya Pharmacy,pharmacy,32.435936,15.6195621,TRUE,TRUE,high
صيدلية ماسي,Massey Pharmacy,Massey Pharmacy,pharmacy,32.4358139,15.6174374,TRUE,TRUE,high
صيدلية الزرقاء الحديثة,Modern Zarqa Pharmacy,Modern Zarqa Pharmacy,pharmacy,32.4354362,15.6148129,TRUE,TRUE,high
صيدلية بيسان,Bisan Pharmacy,Bisan Pharmacy,pharmacy,32.444561,15.6299372,TRUE,TRUE,high
صيدلية اولاد مجذوب,Sons Majzoub Pharmacy,Sons Majzoub Pharmacy,pharmacy,32.4620628,15.6290627,TRUE,TRUE,high
صيدلية د عبدالله,Dr Abdullah Pharmacy,Dr Abdullah Pharmacy,pharmacy,32.4615631,15.6320629,TRUE,TRUE,high
صيدلية كيور كير,Cure Care Pharmacy,Cure Care Pharmacy,pharmacy,32.4610634,15.6325626,TRUE,TRUE,high
صيدلية الحجر الاسود,Black Stone Pharmacy,Black Stone Pharmacy,pharmacy,32.4614372,15.6400623,TRUE,TRUE,high
المجلس القومي للأدويه والسموم,National Council of Drugs and Poisons,National Council of Drugs and Poisons,pharmacy,32.5235883,15.5827879,TRUE,TRUE,high
صيدلية الاعراك,Al-Arak Pharmacy,Al-Arak Pharmacy,pharmacy,32.4343109,15.5965624,TRUE,TRUE,high
صيدلية اوتوز,Autoz Pharmacy,Autoz Pharmacy,pharmacy,32.5683697,15.5711161,TRUE,TRUE,high
Springs Pharmacy,Springs Pharmacy,Springs Pharmacy,pharmacy,32.5748208,15.5782741,TRUE,TRUE,high
صيدلية عبد العزيز,Abdel Aziz Pharmacy,Abdel Aziz Pharmacy,pharmacy,32.4609375,15.621563,TRUE,TRUE,high
AL Zaeem Pharmacy,AL Zaeem Pharmacy,AL Zaeem Pharmacy,pharmacy,32.5302461,15.6226674,TRUE,TRUE,high
صيدلية الدكتور نبيل,Dr. Nabil Pharmacy,Dr. Nabil Pharmacy,pharmacy,32.5636833,15.5801275,TRUE,TRUE,high
صيدلية الغزالي,Al-Ghazali Pharmacy,Al-Ghazali Pharmacy,pharmacy,32.5401878,15.631937,TRUE,TRUE,high
صيدلية المنادي,Al-Munady Pharmacy,Al-Munady Pharmacy,pharmacy,32.4519386,15.5898123,TRUE,TRUE,high
صيدلية ملاك,Malak Pharmacy,Malak Pharmacy,pharmacy,32.4506874,15.5905628,TRUE,TRUE,high
صيدلية المربعات,Al Murabaat Pharmacy,Al Murabaat Pharmacy,pharmacy,32.454937,15.6083126,TRUE,TRUE,high
صيدلية الراوي,Al Rawi Pharmacy,Al Rawi Pharmacy,pharmacy,32.4573135,15.5880623,TRUE,TRUE,high
صيدلية السلام,Al Salam Pharmacy,Al Salam Pharmacy,pharmacy,32.4560623,15.5856876,TRUE,TRUE,high
مستشفى الدمبو,Dumbo Hospital,Dumbo Hospital,hospital,32.2215834,14.5200202,TRUE,TRUE,high
صيدلية الياذة الحديثة,Al Yadah Modern Pharmacy,Al Yadah Modern Pharmacy,pharmacy,32.4256859,15.5398121,TRUE,TRUE,high
صيدلية كرفاس,Karvas Pharmacy,Karvas Pharmacy,pharmacy,32.4303131,15.5568123,TRUE,TRUE,high
صيدلية عروس الرمال,Bride of Sands Pharmacy,Bride of Sands Pharmacy,pharmacy,32.4300613,15.5550623,TRUE,TRUE,high
صيدلية اهل القران,Ahl Al-Quran Pharmacy,Ahl Al-Quran Pharmacy,pharmacy,32.6873131,15.5096874,TRUE,TRUE,high
صيدلية الهلتون,Hilton Pharmacy,Hilton Pharmacy,pharmacy,32.689064,15.5215626,TRUE,TRUE,high
صيدلية نبع الخير,Nabea Al Khair Pharmacy,Nabea Al Khair Pharmacy,pharmacy,32.6911888,15.5221872,TRUE,TRUE,high
,,Unnamed Pharmacy,pharmacy,32.5379686,15.5694209,FALSE,TRUE,medium
صيدلية الواحة سوبا,Al Waha Soba Pharmacy,Al Waha Soba Pharmacy,pharmacy,32.6315613,15.4924374,TRUE,TRUE,high
صيدلية اينورا,Enora Pharmacy,Enora Pharmacy,pharmacy,32.5718117,15.5040627,TRUE,TRUE,high
صيدلية طلة عافية,Talat Afia Pharmacy,Talat Afia Pharmacy,pharmacy,32.5740623,15.4944372,TRUE,TRUE,high
صيدلية ابو المقداد 10,Abu Al-Miqdad Pharmacy 10,Abu Al-Miqdad Pharmacy 10,pharmacy,32.5654373,15.4931879,TRUE,TRUE,high
صيدلية مستشفى بشاير,Bashayer Hospital Pharmacy,Bashayer Hospital Pharmacy,pharmacy,32.5523109,15.4904375,TRUE,TRUE,high
صيدلية الو المقداد - مايو,Alo Al-Miqdad Pharmacy - Mayo,Alo Al-Miqdad Pharmacy - Mayo,pharmacy,32.5534363,15.4911871,TRUE,TRUE,high
صيدلية الانجاز,Enjaz Pharmacy,Enjaz Pharmacy,pharmacy,32.5343717,15.5754193,TRUE,TRUE,high
مركز المرابيع الطبي الخيري,Al Marabea Charitable Medical Center,Al Marabea Charitable Medical Center,other,32.677063,15.5306873,TRUE,TRUE,high
صيدلية الفرسان - ش نوباتيا,Al Forsan Pharmacy - Noubatia St,Al Forsan Pharmacy - Noubatia St,pharmacy,32.4945641,15.4819374,TRUE,TRUE,high
صيدلية عثمان حسين الحديثة,Othman Hussein Modern Pharmacy,Othman Hussein Modern Pharmacy,pharmacy,32.4928131,15.4816875,TRUE,TRUE,high
صيدلية التوالي,Al-Tawail Pharmacy,Al-Tawail Pharmacy,pharmacy,32.4888115,15.4810629,TRUE,TRUE,high
صيدلية شهاب تبد,Shehab Tabdad Pharmacy,Shehab Tabdad Pharmacy,pharmacy,32.4869385,15.4808121,TRUE,TRUE,high
صيدلية عزة,Azza Pharmacy,Azza Pharmacy,pharmacy,33.5248292,14.3983607,TRUE,TRUE,high
صيدلية التامين المركزية,Central Insurance Pharmacy,Central Insurance Pharmacy,pharmacy,33.5252717,14.3983555,TRUE,TRUE,high
صيدلية امنية الطيب,Omnia El-Tayeb Pharmacy,Omnia El-Tayeb Pharmacy,pharmacy,32.4983139,15.4518127,TRUE,TRUE,high
صيدلية بثينة السنهوري,Buthaina Al-Sanhouri Pharmacy,Buthaina Al-Sanhouri Pharmacy,pharmacy,32.4941864,15.4513121,TRUE,TRUE,high
صيدلية الاوركيدة,Orchid Pharmacy,Orchid Pharmacy,pharmacy,32.4916878,15.4509373,TRUE,TRUE,high
صيدلية قطوف,Qatouf Pharmacy,Qatouf Pharmacy,pharmacy,32.4851875,15.4620628,TRUE,TRUE,high
صيدلية حاج عطا,Haj Atta Pharmacy,Haj Atta Pharmacy,pharmacy,32.4858131,15.4623127,TRUE,TRUE,high
صيدلية ان كير,InCare Pharmacy,InCare Pharmacy,pharmacy,32.4869385,15.4570627,TRUE,TRUE,high
صيدلية الوسيلة 1,Al Waseela Pharmacy 1,Al Waseela Pharmacy 1,pharmacy,32.4849358,15.4659376,TRUE,TRUE,high
صيدلية شرري,Sharry Pharmacy,Sharry Pharmacy,pharmacy,32.4953117,15.4161873,TRUE,TRUE,high
صيدلية انو,Ano Pharmacy,Ano Pharmacy,pharmacy,32.4751892,15.4775629,TRUE,TRUE,high
صيدلية ابو المقداد 9,Abu Al-Miqdad Pharmacy 9,Abu Al-Miqdad Pharmacy 9,pharmacy,32.489563,15.4430628,TRUE,TRUE,high
صيدلية اواب,Awab Pharmacy,Awab Pharmacy,pharmacy,32.4903107,15.4404373,TRUE,TRUE,high
صيدلية العنود,Al Anoud Pharmacy,Al Anoud Pharmacy,pharmacy,32.5024376,15.4681873,TRUE,TRUE,high
صيدلية السيسي,Sisi Pharmacy,Sisi Pharmacy,pharmacy,32.6129241,15.6521761,TRUE,TRUE,high
صيدلية كوين,Queen Pharmacy,Queen Pharmacy,pharmacy,32.6390093,15.6418846,TRUE,TRUE,high
صيدلية التنعيم,Al-Tanaim Pharmacy,Al-Tanaim Pharmacy,pharmacy,32.6328409,15.6468599,TRUE,TRUE,high
صيدلية سبأ,Sheba Pharmacy,Sheba Pharmacy,pharmacy,32.5774348,15.5695767,TRUE,TRUE,high
شركة سارب الطبية المحدودة,Sarb Medical Company Limited,Sarb Medical Company Limited,pharmacy,32.567454,15.5690365,TRUE,TRUE,high
صيدلية د امجد الحديثة,Dr. Amjad Modern Pharmacy,Dr. Amjad Modern Pharmacy,pharmacy,32.4976883,15.4971876,TRUE,TRUE,high
صيدلية دالاس,Dallas Pharmacy,Dallas Pharmacy,pharmacy,32.4889374,15.493063,TRUE,TRUE,high
مركز صحي الرازي الطبي الخيري,Al-Razi Charitable Medical Health Center,Al-Razi Charitable Medical Health Center,clinic,32.4757014,15.7259225,TRUE,TRUE,high
مجمع سواعد الطبي,Sawaed Medical Complex,Sawaed Medical Complex,clinic,32.4768411,15.7237098,TRUE,TRUE,high
صيدلية المستشفي الدولي,International Hospital Pharmacy,International Hospital Pharmacy,pharmacy,32.5264074,15.6413356,TRUE,TRUE,high
صيدلية الشهداء,Al-Shuhadaa Pharmacy,Al-Shuhadaa Pharmacy,pharmacy,32.4889191,15.6445416,TRUE,TRUE,high
صيدلية سنبلة,Sonbola Pharmacy,Sonbola Pharmacy,pharmacy,32.5313777,15.6509245,TRUE,TRUE,high
صيدلية التامين المركزية 3 شوامخ,Central Insurance Pharmacy 3 Shawamekh,Central Insurance Pharmacy 3 Shawamekh,pharmacy,32.5310631,15.6366873,TRUE,TRUE,high
صيدلية ابو كرم,Abu Karam Pharmacy,Abu Karam Pharmacy,pharmacy,32.4888793,15.6445134,TRUE,TRUE,high
صيدلية محمد سعيد,Mohamed Saeed Pharmacy,Mohamed Saeed Pharmacy,pharmacy,32.4886505,15.6442722,TRUE,TRUE,high
مركز صحي الفردوس,Al-Firdous Health Center,Al-Firdous Health Center,clinic,32.4586266,15.5901864,TRUE,TRUE,high
صيدلية صحتين,Sahtain Pharmacy,Sahtain Pharmacy,pharmacy,32.5270615,15.5495625,TRUE,TRUE,high
صيدلية ريهام,Reham Pharmacy,Reham Pharmacy,pharmacy,32.5389366,15.5478125,TRUE,TRUE,high
مركز سمير الصحي,Samir Health Center,Samir Health Center,clinic,32.5391884,15.5494375,TRUE,TRUE,high
صيدلية مركز سمير,Samir Center Pharmacy,Samir Center Pharmacy,pharmacy,32.5390625,15.5499372,TRUE,TRUE,high
صيدلية اردوغان,Erdogan Pharmacy,Erdogan Pharmacy,pharmacy,32.5356865,15.5510626,TRUE,TRUE,high
صيدلية فاطمة عمر 2,Fatima Omar Pharmacy 2,Fatima Omar Pharmacy 2,pharmacy,32.5318108,15.5504379,TRUE,TRUE,high
صيدلية بالميرا,Palmyra Pharmacy,Palmyra Pharmacy,pharmacy,32.5403137,15.5419378,TRUE,TRUE,high
صيدلية اكسون,Exxon Pharmacy,Exxon Pharmacy,pharmacy,32.5405617,15.5408125,TRUE,TRUE,high
صيدلية الجابري,Al Jabri Pharmacy,Al Jabri Pharmacy,pharmacy,32.5406876,15.5376873,TRUE,TRUE,high
صيدلية راما,Rama Pharmacy,Rama Pharmacy,pharmacy,32.5413132,15.5354376,TRUE,TRUE,high
صيدلية القصواء,Al Qaswa Pharmacy,Al Qaswa Pharmacy,pharmacy,32.5418129,15.5331879,TRUE,TRUE,high
صيدلية وئامة,Weamah Pharmacy,Weamah Pharmacy,pharmacy,32.5011864,15.5255623,TRUE,TRUE,high
صيدلية الشريف الهندي 1,Al-Sharif Al-Hindi Pharmacy 1,Al-Sharif Al-Hindi Pharmacy 1,pharmacy,32.5203133,15.5280628,TRUE,TRUE,high
صيدلية الاسباط,Al-Asbat Pharmacy,Al-Asbat Pharmacy,pharmacy,32.5160637,15.5298128,TRUE,TRUE,high
صيدلية هاشم عيسى - جبرة طه الماحي,Hashem Issa Pharmacy - Jabra Taha Al-Mahi,Hashem Issa Pharmacy - Jabra Taha Al-Mahi,pharmacy,32.5116882,15.5323124,TRUE,TRUE,high
صيدلية الفصيل,Al-Faseel Pharmacy,Al-Faseel Pharmacy,pharmacy,32.524189,15.5466871,TRUE,TRUE,high
صيدلية نوف,Nouf Pharmacy,Nouf Pharmacy,pharmacy,32.5651645,15.5503583,TRUE,TRUE,high
صيدلية وي كير,We Care Pharmacy,We Care Pharmacy,pharmacy,32.5636829,15.5594343,TRUE,TRUE,high
صيدلية رويال لايف,Royal Life Pharmacy,Royal Life Pharmacy,pharmacy,32.5634964,15.5604648,TRUE,TRUE,high
صيدلية تباشير,Tabashir Pharmacy,Tabashir Pharmacy,pharmacy,32.6199357,15.6101241,TRUE,TRUE,high
صيدلية ام احمد,Umm Ahmed Pharmacy,Umm Ahmed Pharmacy,pharmacy,32.5076866,15.5155621,TRUE,TRUE,high
صيدلية اسعاف كير,Ambulance Care Pharmacy,Ambulance Care Pharmacy,pharmacy,32.5150642,15.5221872,TRUE,TRUE,high
صيدلية اشفاء,Ishfaa Pharmacy,Ishfaa Pharmacy,pharmacy,32.520813,15.5210629,TRUE,TRUE,high
صيدلية د احمد مسلم,Dr. Ahmed Muslim Pharmacy,Dr. Ahmed Muslim Pharmacy,pharmacy,32.5114365,15.5353127,TRUE,TRUE,high
صيدلية مركز حياة,Hayat Center Pharmacy,Hayat Center Pharmacy,pharmacy,32.4980621,15.5191879,TRUE,TRUE,high
صيدلية الكفاءة,Al-Kaffa Pharmacy,Al-Kaffa Pharmacy,pharmacy,32.4988136,15.5159378,TRUE,TRUE,high
صيدلية المستشار,Advisor Pharmacy,Advisor Pharmacy,pharmacy,32.4994392,15.5099373,TRUE,TRUE,high
صيدلية المنهاج,Al-Minhaj Pharmacy,Al-Minhaj Pharmacy,pharmacy,32.4996872,15.5084372,TRUE,TRUE,high
صيدلية الراية,Al Raya Pharmacy,Al Raya Pharmacy,pharmacy,32.5131874,15.5254374,TRUE,TRUE,high
صيدلية الاحمدي,Al-Ahmadi Pharmacy,Al-Ahmadi Pharmacy,pharmacy,32.5264359,15.5323124,TRUE,TRUE,high
صيدلية بايونير,Pioneer Pharmacy,Pioneer Pharmacy,pharmacy,32.5261879,15.5341873,TRUE,TRUE,high
صيدلية عزلة الطبية,Azala Medical Pharmacy,Azala Medical Pharmacy,pharmacy,32.5255623,15.5386877,TRUE,TRUE,high
صيدلية هاي كير - جبرة,Hi Care Pharmacy - Jabra,Hi Care Pharmacy - Jabra,pharmacy,32.5273132,15.5274372,TRUE,TRUE,high
صيدلية التميز,Excellence Pharmacy,Excellence Pharmacy,pharmacy,32.5354385,15.5285625,TRUE,TRUE,high
صيدلية الياسمين,Al-Yasmine Pharmacy,Al-Yasmine Pharmacy,pharmacy,32.5353127,15.5289373,TRUE,TRUE,high
صيدلية الرشيد الحديثة 2,Al-Rasheed Modern Pharmacy 2,Al-Rasheed Modern Pharmacy 2,pharmacy,32.5366859,15.5205622,TRUE,TRUE,high
صيدلية بلة الفكي,Balla El Faki Pharmacy,Balla El Faki Pharmacy,pharmacy,32.5825615,15.5384378,TRUE,TRUE,high
الشامخ للبصريات,Al Shamekh Optics,Al Shamekh Optics,clinic,32.5020638,15.5233126,TRUE,TRUE,high
Mogla eye complex,Mogla eye complex,Mogla eye complex,clinic,32.5619237,15.5763377,TRUE,TRUE,high
صيدلية جبرة,Jabra Pharmacy,Jabra Pharmacy,pharmacy,32.5254511,15.5365496,TRUE,TRUE,high
صيدلية تبد الحديثة,Tabdad Modern Pharmacy,Tabdad Modern Pharmacy,pharmacy,32.5748138,15.5429373,TRUE,TRUE,high
صيدلية شارع جوبا,Juba Street Pharmacy,Juba Street Pharmacy,pharmacy,32.5771866,15.5430622,TRUE,TRUE,high
صيدلية محمد سرور,Mohamed Sorour Pharmacy,Mohamed Sorour Pharmacy,pharmacy,32.5766869,15.7510624,TRUE,TRUE,high
صيدلية التعافي الحديثة,Modern Recovery Pharmacy,Modern Recovery Pharmacy,pharmacy,32.5823135,15.7646875,TRUE,TRUE,high
صيدلية دكتور امنية معتصم,Dr. Omnia Moatasem Pharmacy,Dr. Omnia Moatasem Pharmacy,pharmacy,32.4992486,15.6821884,TRUE,TRUE,high
صيدلية شوارق الانوار,Shawariq Al Anwar Pharmacy,Shawariq Al Anwar Pharmacy,pharmacy,32.5784378,15.7011871,TRUE,TRUE,high
صيدلية عباد الرحمن,Ebad Al-Rahman Pharmacy,Ebad Al-Rahman Pharmacy,pharmacy,33.5397245,13.8217859,TRUE,TRUE,high
صيدلية بنت الافندي,Bint Al-Afandi Pharmacy,Bint Al-Afandi Pharmacy,pharmacy,32.5356865,15.6281872,TRUE,TRUE,high
مجمع عيادات ود الحسين,Wad Al Hussein Clinics Complex,Wad Al Hussein Clinics Complex,clinic,32.5263009,15.5321339,TRUE,TRUE,high
صيدلية الاحمدي,Al-Ahmadi Pharmacy,Al-Ahmadi Pharmacy,pharmacy,32.5263017,15.5323561,TRUE,TRUE,high
مركز روان كير,Rawan Care Center,Rawan Care Center,clinic,35.3915246,14.0419151,TRUE,TRUE,high
صيدلية ميار,Mayar Pharmacy,Mayar Pharmacy,pharmacy,32.5583115,15.7015629,TRUE,TRUE,high
صيدلية الزعيم,Al Zaeem Pharmacy,Al Zaeem Pharmacy,pharmacy,32.5390625,15.6416874,TRUE,TRUE,high
صيدلية د محمود الرشيد,Dr. Mahmoud Al-Rasheed Pharmacy,Dr. Mahmoud Al-Rasheed Pharmacy,pharmacy,32.5418129,15.6453123,TRUE,TRUE,high
صيدلية ايلان,Ilan Pharmacy,Ilan Pharmacy,pharmacy,32.5249367,15.6291876,TRUE,TRUE,high
الانسجة المريضة بروف علي عبد الستار,Diseased tissues Prof. Ali Abdel Sattar,Diseased tissues Prof. Ali Abdel Sattar,other,32.5337318,15.5992886,TRUE,TRUE,high
صيدلية الراشدين 2,Al-Rashideen Pharmacy 2,Al-Rashideen Pharmacy 2,pharmacy,32.555687,15.7036877,TRUE,TRUE,high
صيدلية الراشدين,Al-Rashideen Pharmacy,Al-Rashideen Pharmacy,pharmacy,32.555687,15.7036877,TRUE,TRUE,high
صيدلية السيدة,Mrs. Pharmacy,Mrs. Pharmacy,pharmacy,32.5594368,15.7106876,TRUE,TRUE,high
صيدلية عياش,Ayyash Pharmacy,Ayyash Pharmacy,pharmacy,32.6087375,15.5874797,TRUE,TRUE,high
صيدلية الرناد,Al-Ranad Pharmacy,Al-Ranad Pharmacy,pharmacy,32.443134,15.6561295,TRUE,TRUE,high
صيدلية الاحسان,Al-Ihsan Pharmacy,Al-Ihsan Pharmacy,pharmacy,33.300871,14.735891,TRUE,TRUE,high
صيدلية النورين,Al-Nourin Pharmacy,Al-Nourin Pharmacy,pharmacy,33.2990696,14.7381748,TRUE,TRUE,high
صيدلية الفرقان,Al-Furqan Pharmacy,Al-Furqan Pharmacy,pharmacy,33.297938,14.7380502,TRUE,TRUE,high
صيدلية الاحباب,Al Ahbab Pharmacy,Al Ahbab Pharmacy,pharmacy,32.5529366,15.697938,TRUE,TRUE,high
صيدلية باكتوتة,Baktota Pharmacy,Baktota Pharmacy,pharmacy,32.605381,15.5973755,TRUE,TRUE,high
صيدلية روتس,Roots Pharmacy,Roots Pharmacy,pharmacy,32.6167371,15.6009184,TRUE,TRUE,high
صيدلية براند,Brand Pharmacy,Brand Pharmacy,pharmacy,32.6217425,15.5980614,TRUE,TRUE,high
صيدلية حي الجامعة,University District Pharmacy,University District Pharmacy,pharmacy,32.6161125,15.5987057,TRUE,TRUE,high
صيدلية الاستاذ الهادي 2,Professor Al-Hadi Pharmacy 2,Professor Al-Hadi Pharmacy 2,pharmacy,32.6323078,15.5967196,TRUE,TRUE,high
صيدلية سالي 2,Sally Pharmacy 2,Sally Pharmacy 2,pharmacy,32.6288218,15.5971215,TRUE,TRUE,high
صيدلية الضاحية,Dahiya Pharmacy,Dahiya Pharmacy,pharmacy,32.6135573,15.5989452,TRUE,TRUE,high
صيدلية ذات النطاقين,That Nitaqain Pharmacy,That Nitaqain Pharmacy,pharmacy,32.6366917,15.5961738,TRUE,TRUE,high
صيدلية د نبيل,Dr. Nabil Pharmacy,Dr. Nabil Pharmacy,pharmacy,32.5315628,15.6364374,TRUE,TRUE,high
صيدلية العصر,Al-Asr Pharmacy,Al-Asr Pharmacy,pharmacy,32.5264359,15.6270628,TRUE,TRUE,high
صيدلية الشيماء 2,Al Shaima Pharmacy 2,Al Shaima Pharmacy 2,pharmacy,32.5243111,15.630187,TRUE,TRUE,high
صيدلية د مي خيري,Dr. Mai Khairy Pharmacy,Dr. Mai Khairy Pharmacy,pharmacy,32.5684357,15.6608124,TRUE,TRUE,high
عيادة الجراحة الدقيقة والأعصاب,Microsurgery and Neurology Clinic,Microsurgery and Neurology Clinic,clinic,32.5561613,15.6244802,TRUE,TRUE,high
صيدلية امروز,Imroz Pharmacy,Imroz Pharmacy,pharmacy,32.5671725,15.6272044,TRUE,TRUE,high
صيدلية نورال,Noral Pharmacy,Noral Pharmacy,pharmacy,32.5698419,15.6358042,TRUE,TRUE,high
مجمع السيسي الطبي - كافوري,Sisi Medical Complex - Kafouri,Sisi Medical Complex - Kafouri,clinic,32.5601135,15.6233101,TRUE,TRUE,high
صيدلية منة الله,Menna Allah Pharmacy,Menna Allah Pharmacy,pharmacy,32.5600706,15.6258466,TRUE,TRUE,high
صيدلية مستشفي بروفيسور عبد العال الإدريسي,Professor Abdel-Al Idrissi Hospital Pharmacy,Professor Abdel-Al Idrissi Hospital Pharmacy,pharmacy,32.5605426,15.6298607,TRUE,TRUE,high
صيدلية حي النزهة,Al-Nuzha District Pharmacy,Al-Nuzha District Pharmacy,pharmacy,32.5721653,15.592717,TRUE,TRUE,high
مستشفى طه بعشر للطب النفسي,Taha Bashar Psychiatric Hospital,Taha Bashar Psychiatric Hospital,hospital,32.5270293,15.6262034,TRUE,TRUE,high
صيدلية دكتورة نجاة صالح,Dr. Najat Saleh Pharmacy,Dr. Najat Saleh Pharmacy,pharmacy,32.616183,15.6041157,TRUE,TRUE,high
صيدلية البراموسي,Al-Baramousi Pharmacy,Al-Baramousi Pharmacy,pharmacy,32.5094985,15.7078599,TRUE,TRUE,high
صيدلية البراموسي,Al-Baramousi Pharmacy,Al-Baramousi Pharmacy,pharmacy,32.5097569,15.7087399,TRUE,TRUE,high
صيدلية فارما بلس,Pharma Plus Pharmacy,Pharma Plus Pharmacy,pharmacy,32.481125,15.61885,TRUE,TRUE,high
صيدلية محمد سعبد,Mohamed Saabd Pharmacy,Mohamed Saabd Pharmacy,pharmacy,32.4465559,15.6479076,TRUE,TRUE,high
صيدلية المرتقى,Al-Murtaqa Pharmacy,Al-Murtaqa Pharmacy,pharmacy,32.474765,15.6185966,TRUE,TRUE,high
صيدلية د/محمد عبده,Dr. Mohamed Abdo Pharmacy,Dr. Mohamed Abdo Pharmacy,pharmacy,32.4850695,15.7313135,TRUE,TRUE,high
صيدلية طالب الله,Talib Allah Pharmacy,Talib Allah Pharmacy,pharmacy,32.4608964,15.7123261,TRUE,TRUE,high
صيدلية كدادة 3,Kadada Pharmacy 3,Kadada Pharmacy 3,pharmacy,32.5134226,15.7201852,TRUE,TRUE,high
صيدلية الروضة,Rawda Pharmacy,Rawda Pharmacy,pharmacy,32.4982015,15.6793861,TRUE,TRUE,high
صيدلية الاحرار,Al-Ahrar Pharmacy,Al-Ahrar Pharmacy,pharmacy,32.499208,15.6792913,TRUE,TRUE,high
صيدلية مارفل,Marvel Pharmacy,Marvel Pharmacy,pharmacy,32.5819784,15.5452288,TRUE,TRUE,high
صيدلية تساهيل 2,Tsahil Pharmacy 2,Tsahil Pharmacy 2,pharmacy,32.6377174,15.4907346,TRUE,TRUE,high
صيدلية الشوبلي الحديثة,Al-Shoubli Modern Pharmacy,Al-Shoubli Modern Pharmacy,pharmacy,32.5876629,15.523851,TRUE,TRUE,high
صيدلية القبول,Acceptance Pharmacy,Acceptance Pharmacy,pharmacy,32.5898248,15.524145,TRUE,TRUE,high
صيدلية الرماش 5,Al Ramash Pharmacy 5,Al Ramash Pharmacy 5,pharmacy,32.5766703,15.5173834,TRUE,TRUE,high
صيدلية ماريل,Mariel Pharmacy,Mariel Pharmacy,pharmacy,32.5186155,15.5258871,TRUE,TRUE,high
صيدلية ساره الحديثه,Sarah Modern Pharmacy,Sarah Modern Pharmacy,pharmacy,32.6411024,15.6163966,TRUE,TRUE,high
صيدلية ترياق,Teriaq Pharmacy,Teriaq Pharmacy,pharmacy,32.6367631,15.595608,TRUE,TRUE,high
صيدلية مدارج الحديثة,Madarej Modern Pharmacy,Madarej Modern Pharmacy,pharmacy,32.6383469,15.6056114,TRUE,TRUE,high
صيدلية ليتالية,Litalia Pharmacy,Litalia Pharmacy,pharmacy,32.6386303,15.607558,TRUE,TRUE,high
صيدلية العروبة,Al Orouba Pharmacy,Al Orouba Pharmacy,pharmacy,32.6281436,15.6156292,TRUE,TRUE,high
صيدلية السيد البدوي,Al-Sayed Al-Badawi Pharmacy,Al-Sayed Al-Badawi Pharmacy,pharmacy,32.6334418,15.6084156,TRUE,TRUE,high
صيدلية تلاقي الخير,Talaq Al Khair Pharmacy,Talaq Al Khair Pharmacy,pharmacy,32.6277923,15.6118581,TRUE,TRUE,high
صيدلية دكتورة سوزان,Dr. Suzan Pharmacy,Dr. Suzan Pharmacy,pharmacy,32.6275105,15.6123177,TRUE,TRUE,high
صيدلية سعاد6,Souad Pharmacy6,Souad Pharmacy6,pharmacy,32.6288247,15.617945,TRUE,TRUE,high
صيدلية ابو حسام,Abu Hussam Pharmacy,Abu Hussam Pharmacy,pharmacy,32.6319196,15.6379525,TRUE,TRUE,high
صيدلية توسل الحديثة,Tawasul Modern Pharmacy,Tawasul Modern Pharmacy,pharmacy,32.6152689,15.5911021,TRUE,TRUE,high
